codigo_6d,codigo_ibge,nome,latitude,longitude,estado
520005,5200050,Abadia de Goiás,-16.7573,-49.4412,GO
310010,3100104,Abadia dos Dourados,-18.4831,-47.3916,MG
520010,5200100,Abadiânia,-16197,-48.7057,GO
310020,3100203,Abaeté,-19.1551,-45.4444,MG
150010,1500107,Abaetetuba,-1.72183,-48.8788,PA
230010,2300101,Abaiara,-7.34588,-39.0416,CE
290010,2900108,Abaíra,-13.2488,-41.6619,BA
290020,2900207,Abaré,-8.72073,-39.1162,BA
410010,4100103,Abatiá,-23.3049,-50.3133,PR
420005,4200051,Abdon Batista,-27.6126,-51.0233,SC
150013,1500131,Abel Figueiredo,-4.95333,-48.3933,PA
420010,4200101,Abelardo Luz,-26.5716,-52.3229,SC
310030,3100302,Abre Campo,-20.2996,-42.4743,MG
260005,2600054,Abreu e Lima,-7.90072,-34.8984,PE
170025,1700251,Abreulândia,-9.62101,-49.1518,TO
310040,3100401,Acaiaca,-20359,-43.1439,MG
210005,2100055,Açailândia,-4.94714,-47.5004,MA
290030,2900306,Acajutiba,-11.6575,-38.0197,BA
150020,1500206,Acará,-1.95383,-48.1985,PA
230015,2300150,Acarape,-4.22083,-38.7055,CE
230020,2300200,Acaraú,-2.88769,-40.1183,CE
240010,2400109,Acari,-6.4282,-36.6347,RN
220005,2200053,Acauã,-8.21954,-41.0831,PI
430003,4300034,Aceguá,-31.8665,-54.1615,RS
230030,2300309,Acopiara,-6.08911,-39448,CE
510010,5100102,Acorizal,-15194,-56.3632,MT
120001,1200013,Acrelândia,-9.82581,-66.8972,AC
520013,5200134,Acreúna,-17396,-50.3749,GO
240020,2400208,Açu,-5.58362,-36914,RN
310050,3100500,Açucena,-19.0671,-42.5419,MG
350010,3500105,Adamantina,-21682,-51.0737,SP
520015,5200159,Adelândia,-16.4127,-50.1657,GO
350020,3500204,Adolfo,-21.2325,-49.6451,SP
410020,4100202,Adrianópolis,-24.6606,-48.9922,PR
290035,2900355,Adustina,-10.5437,-38.1113,BA
260010,2600104,Afogados da Ingazeira,-7.74312,-37631,PE
240030,2400307,Afonso Bezerra,-5.49229,-36.5075,RN
320010,3200102,Afonso Cláudio,-20.0778,-41.1261,ES
210010,2100105,Afonso Cunha,-4.13631,-43.3275,MA
260020,2600203,Afrânio,-8.51136,-41.0095,PE
150030,1500305,Afuá,-0.154874,-50.3861,PA
260030,2600302,Agrestina,-8.45966,-35.9447,PE
220010,2200103,Agricolândia,-5.79676,-42.6664,PI
420020,4200200,Agrolândia,-27.4087,-49822,SC
420030,4200309,Agronômica,-27.2662,-49708,SC
150034,1500347,Água Azul do Norte,-6.79053,-50.4791,PA
310060,3100609,Água Boa,-17.9914,-42.3806,MG
510020,5100201,Água Boa,-14051,-52.1601,MT
220020,2200202,Água Branca,-5.88856,-42637,PI
250010,2500106,Água Branca,-7.51144,-37.6357,PB
270010,2700102,Água Branca,-9262,-37938,AL
500020,5000203,Água Clara,-20.4452,-52879,MS
310070,3100708,Água Comprida,-20.0576,-48.1069,MG
420040,4200408,Água Doce,-26.9985,-51.5528,SC
210015,2100154,Água Doce do Maranhão,-2.84048,-42.1189,MA
320016,3200169,Água Doce do Norte,-18.5482,-40.9854,ES
290040,2900405,Água Fria,-11.8618,-38.7639,BA
520017,5200175,Água Fria de Goiás,-14.9778,-47.7823,GO
520020,5200209,Água Limpa,-18.0771,-48.7603,GO
240040,2400406,Água Nova,-6.20351,-38.2941,RN
260040,2600401,Água Preta,-8.70609,-35.5263,PE
430005,4300059,Água Santa,-28.1672,-52031,RS
350030,3500303,Aguaí,-22.0572,-46.9735,SP
310080,3100807,Aguanil,-20.9439,-45.3915,MG
260050,2600500,Águas Belas,-9.11125,-37.1226,PE
350040,3500402,Águas da Prata,-21.9319,-46.7176,SP
420050,4200507,Águas de Chapecó,-27.0754,-52.9808,SC
350050,3500501,Águas de Lindóia,-22.4733,-46.6314,SP
350055,3500550,Águas de Santa Bárbara,-22.8812,-49.2421,SP
350060,3500600,Águas de São Pedro,-22.5977,-47.8734,SP
310090,3100906,Águas Formosas,-17.0802,-40.9384,MG
420055,4200556,Águas Frias,-26.8794,-52.8568,SC
520025,5200258,Águas Lindas de Goiás,-15.7617,-48.2816,GO
420060,4200606,Águas Mornas,-27.6963,-48.8243,SC
310100,3101003,Águas Vermelhas,-15.7431,-41.4571,MG
430010,4300109,Agudo,-29.6447,-53.2515,RS
350070,3500709,Agudos,-22.4694,-48.9863,SP
410030,4100301,Agudos do Sul,-25.9899,-49.3343,PR
320013,3200136,Águia Branca,-18.9846,-40.7437,ES
250020,2500205,Aguiar,-7.0918,-38.1681,PB
170030,1700301,Aguiarnópolis,-6.55409,-47.4702,TO
310110,3101102,Aimorés,-19.5007,-41.0746,MG
290060,2900603,Aiquara,-14.1269,-39.8937,BA
230040,2300408,Aiuaba,-6.57122,-40.1178,CE
310120,3101201,Aiuruoca,-21.9736,-44.6042,MG
430020,4300208,Ajuricaba,-28.2342,-53.7757,RS
310130,3101300,Alagoa,-22171,-44.6413,MG
250030,2500304,Alagoa Grande,-7.03943,-35.6206,PB
250040,2500403,Alagoa Nova,-7.05377,-35.7591,PB
250050,2500502,Alagoinha,-6.94657,-35.5332,PB
260060,2600609,Alagoinha,-8.4665,-36.7788,PE
220025,2200251,Alagoinha do Piauí,-7.00039,-40.9282,PI
290070,2900702,Alagoinhas,-12.1335,-38.4208,BA
350075,3500758,Alambari,-23.5503,-47898,SP
310140,3101409,Albertina,-22.2018,-46.6139,MG
210020,2100204,Alcântara,-2.39574,-44.4062,MA
230050,2300507,Alcântaras,-3.58537,-40.5479,CE
250053,2500536,Alcantil,-7.73668,-36.0511,PB
500025,5000252,Alcinópolis,-18.3255,-53.7042,MS
290080,2900801,Alcobaça,-17.5195,-39.2036,BA
210030,2100303,Aldeias Altas,-4.62621,-43.4689,MA
430030,4300307,Alecrim,-27.6579,-54.7649,RS
320020,3200201,Alegre,-20758,-41.5382,ES
430040,4300406,Alegrete,-29.7902,-55.7949,RS
220027,2200277,Alegrete do Piauí,-7.24196,-40.8566,PI
430045,4300455,Alegria,-27.8345,-54.0557,RS
310150,3101508,Além Paraíba,-21.8797,-42.7176,MG
150040,1500404,Alenquer,-1.94623,-54.7384,PA
240050,2400505,Alexandria,-6.40533,-38.0142,RN
520030,5200308,Alexânia,-16.0834,-48.5076,GO
310160,3101607,Alfenas,-21.4256,-45.9477,MG
320030,3200300,Alfredo Chaves,-20.6396,-40.7543,ES
350080,3500808,Alfredo Marcondes,-21.9527,-51414,SP
310163,3101631,Alfredo Vasconcelos,-21.1535,-43.7718,MG
420070,4200705,Alfredo Wagner,-27.7001,-49.3273,SC
250057,2500577,Algodão de Jandaíra,-6.89292,-36.0129,PB
250060,2500601,Alhandra,-7.42977,-34.9057,PB
260070,2600708,Aliança,-7.60398,-35.2227,PE
170035,1700350,Aliança do Tocantins,-11.3056,-48.9361,TO
290090,2900900,Almadina,-14.7089,-39.6415,BA
170040,1700400,Almas,-11.5706,-47.1792,TO
150050,1500503,Almeirim,-1.52904,-52.5788,PA
310170,3101706,Almenara,-16.1785,-40.6942,MG
240060,2400604,Almino Afonso,-6.1475,-37.7636,RN
410040,4100400,Almirante Tamandaré,-25.3188,-49.3037,PR
430047,4300471,Almirante Tamandaré do Sul,-28.1149,-52.9142,RS
520050,5200506,Aloândia,-17.7292,-49.4769,GO
310180,3101805,Alpercata,-18974,-41.97,MG
430050,4300505,Alpestre,-27.2502,-53.0341,RS
310190,3101904,Alpinópolis,-20.8631,-46.3878,MG
510025,5100250,Alta Floresta,-9.86674,-56.0867,MT
110001,1100015,Alta Floresta D'Oeste,-11.9283,-61.9953,RO
350090,3500907,Altair,-20.5242,-49.0571,SP
150060,1500602,Altamira,-3.20407,-52.21,PA
210040,2100402,Altamira do Maranhão,-4.16598,-45.4706,MA
410045,4100459,Altamira do Paraná,-24.7983,-52.7128,PR
230060,2300606,Altaneira,-6.99837,-39.7356,CE
310200,3102001,Alterosa,-21.2488,-46.1387,MG
260080,2600807,Altinho,-8.48482,-36.0644,PE
350100,3501004,Altinópolis,-21.0214,-47.3712,SP
350110,3501103,Alto Alegre,-21.5811,-50168,SP
140005,1400050,Alto Alegre,2.98858,-61.3072,RR
430055,4300554,Alto Alegre,-28.7769,-52.9893,RS
210043,2100436,Alto Alegre do Maranhão,-4213,-44446,MA
210047,2100477,Alto Alegre do Pindaré,-3.66689,-45.8421,MA
110037,1100379,Alto Alegre dos Parecis,-12132,-61835,RO
510030,5100300,Alto Araguaia,-17.3153,-53.2181,MT
420075,4200754,Alto Bela Vista,-27.4333,-51.9044,SC
510035,5100359,Alto Boa Vista,-11.6732,-51.3883,MT
310205,3102050,Alto Caparaó,-20431,-41.8738,MG
240070,2400703,Alto do Rodrigues,-5.28186,-36.75,RN
430057,4300570,Alto Feliz,-29.3919,-51.3123,RS
510040,5100409,Alto Garças,-16.9462,-53.5272,MT
520055,5200555,Alto Horizonte,-14.1978,-49.3378,GO
315350,3153509,Alto Jequitibá,-20.4208,-41967,MG
220030,2200301,Alto Longá,-5.25634,-42.2096,PI
510050,5100508,Alto Paraguai,-14.5137,-56.4776,MT
412862,4128625,Alto Paraíso,-26.1146,-52.7469,PR
110040,1100403,Alto Paraíso,-9.71429,-63.3188,RO
520060,5200605,Alto Paraíso de Goiás,-14.1305,-47.51,GO
410060,4100608,Alto Paraná,-23.1312,-52.3189,PR
210050,2100501,Alto Parnaíba,-9.10273,-45.9303,MA
410070,4100707,Alto Piquiri,-24.0224,-53.44,PR
310210,3102100,Alto Rio Doce,-21.0281,-43.4067,MG
320035,3200359,Alto Rio Novo,-19.0618,-41.0209,ES
230070,2300705,Alto Santo,-5.50894,-38.2743,CE
510060,5100607,Alto Taquari,-17.8241,-53.2792,MT
410050,4100509,Altônia,-23.8759,-53.8958,PR
220040,2200400,Altos,-5.03888,-42.4612,PI
350115,3501152,Alumínio,-23.5306,-47.2546,SP
130002,1300029,Alvarães,-3.22727,-64.8007,AM
310220,3102209,Alvarenga,-19.4174,-41.7317,MG
350120,3501202,Álvares Florence,-20.3203,-49.9141,SP
350130,3501301,Álvares Machado,-22.0764,-51.4722,SP
350140,3501400,Álvaro de Carvalho,-22.0841,-49719,SP
350150,3501509,Alvinlândia,-22.4435,-49.7623,SP
310230,3102308,Alvinópolis,-20.1098,-43.0535,MG
170070,1700707,Alvorada,-12.4785,-49.1249,TO
430060,4300604,Alvorada,-29.9914,-51.0809,RS
110034,1100346,Alvorada D'Oeste,-11.3463,-62.2847,RO
310240,3102407,Alvorada de Minas,-18.7334,-43.3638,MG
220045,2200459,Alvorada do Gurguéia,-8.42418,-43777,PI
520080,5200803,Alvorada do Norte,-14.4797,-46491,GO
410080,4100806,Alvorada do Sul,-22.7813,-51.2297,PR
140002,1400027,Amajari,3.64571,-61.3692,RR
500060,5000609,Amambai,-23.1058,-55.2253,MS
160010,1600105,Amapá,2.05267,-50.7957,AP
210055,2100550,Amapá do Maranhão,-1.67524,-46.0024,MA
410090,4100905,Amaporã,-23.0943,-52.7866,PR
260090,2600906,Amaraji,-8.37691,-35.4501,PE
430063,4300638,Amaral Ferrador,-30.8756,-52.2509,RS
520082,5200829,Amaralina,-13.9236,-49.2962,GO
220050,2200509,Amarante,-6.24304,-42.8433,PI
210060,2100600,Amarante do Maranhão,-5.56913,-46.7473,MA
290100,2901007,Amargosa,-13.0215,-39602,BA
130006,1300060,Amaturá,-3.37455,-68.2005,AM
290110,2901106,Amélia Rodrigues,-12.3914,-38.7563,BA
290115,2901155,América Dourada,-11.4429,-41439,BA
350160,3501608,Americana,-22.7374,-47.3331,SP
520085,5200852,Americano do Brasil,-16.2514,-49.9831,GO
350170,3501707,Américo Brasiliense,-21.7288,-48.1147,SP
350180,3501806,Américo de Campos,-20.2985,-49.7359,SP
430064,4300646,Ametista do Sul,-27.3607,-53183,RS
230075,2300754,Amontada,-3.36017,-39.8288,CE
520090,5200902,Amorinópolis,-16.6151,-51.0919,GO
250073,2500734,Amparo,-7.55502,-37.0628,PB
350190,3501905,Amparo,-22.7088,-46772,SP
280010,2800100,Amparo de São Francisco,-10.1348,-36935,SE
310250,3102506,Amparo do Serra,-20.5051,-42.8009,MG
410100,4101002,Ampére,-25.9168,-53.4686,PR
270020,2700201,Anadia,-9.68489,-36.3078,AL
290120,2901205,Anagé,-14.6151,-41.1356,BA
410105,4101051,Anahy,-24.6449,-53.1332,PR
150070,1500701,Anajás,-0.996811,-49.9354,PA
210070,2100709,Anajatuba,-3.26269,-44.6126,MA
350200,3502002,Analândia,-22.1289,-47.6619,SP
130008,1300086,Anamã,-3.56697,-61.3963,AM
170100,1701002,Ananás,-6.36437,-48.0735,TO
150080,1500800,Ananindeua,-1.36391,-48.3743,PA
520110,5201108,Anápolis,-16.3281,-48953,GO
150085,1500859,Anapu,-3.46985,-51.2003,PA
210080,2100808,Anapurus,-3.67577,-43.1014,MA
500070,5000708,Anastácio,-20.4823,-55.8104,MS
500080,5000807,Anaurilândia,-22.1852,-52.7191,MS
420080,4200804,Anchieta,-26.5382,-53.3319,SC
320040,3200409,Anchieta,-20.7955,-40.6425,ES
290130,2901304,Andaraí,-12.8049,-41.3297,BA
410110,4101101,Andirá,-23.0533,-50.2304,PR
290135,2901353,Andorinha,-10.3482,-39.8391,BA
310260,3102605,Andradas,-22.0695,-46.5724,MG
350210,3502101,Andradina,-20.8948,-51.3786,SP
430066,4300661,André da Rocha,-28.6283,-51.5797,RS
310280,3102803,Andrelândia,-21.7411,-44.3117,MG
350220,3502200,Angatuba,-23.4917,-48.4139,SP
310285,3102852,Angelândia,-17.7279,-42.2641,MG
500085,5000856,Angélica,-22.1527,-53.7708,MS
260100,2601003,Angelim,-8.88429,-36.2902,PE
420090,4200903,Angelina,-27.5704,-48.9879,SC
290140,2901403,Angical,-12.0063,-44.7003,BA
220060,2200608,Angical do Piauí,-6.08786,-42.74,PI
170105,1701051,Angico,-6.39179,-47.8611,TO
240080,2400802,Angicos,-5.65792,-36.6094,RN
330010,3300100,Angra dos Reis,-23.0011,-44.3196,RJ
290150,2901502,Anguera,-12.1462,-39.2462,BA
410115,4101150,Ângulo,-23.1946,-51.9154,PR
520120,5201207,Anhanguera,-18.3339,-48.2204,GO
350230,3502309,Anhembi,-22793,-48.1336,SP
350240,3502408,Anhumas,-22.2934,-51.3895,SP
520130,5201306,Anicuns,-16.4642,-49.9617,GO
220070,2200707,Anísio de Abreu,-9.18564,-43.0494,PI
420100,4201000,Anita Garibaldi,-27.6897,-51.1271,SC
420110,4201109,Anitápolis,-27.9012,-49.1316,SC
130010,1300102,Anori,-3.74603,-61.6575,AM
430070,4300703,Anta Gorda,-28.9698,-52.0102,RS
290160,2901601,Antas,-10.3856,-38.3401,BA
410120,4101200,Antonina,-25.4386,-48.7191,PR
230080,2300804,Antonina do Norte,-6.76919,-39987,CE
220080,2200806,Antônio Almeida,-7.21276,-44.1889,PI
290170,2901700,Antônio Cardoso,-12.4335,-39.1176,BA
420120,4201208,Antônio Carlos,-27.5191,-48766,SC
310290,3102902,Antônio Carlos,-21321,-43.7451,MG
310300,3103009,Antônio Dias,-19.6491,-42.8732,MG
290180,2901809,Antônio Gonçalves,-10.5767,-40.2785,BA
500090,5000906,Antônio João,-22.1927,-55.9517,MS
240090,2400901,Antônio Martins,-6.21367,-37.8834,RN
410130,4101309,Antônio Olinto,-25.9804,-50.1972,PR
430080,4300802,Antônio Prado,-28.8565,-51.2883,RS
310310,3103108,Antônio Prado de Minas,-21.0192,-42.1109,MG
250077,2500775,Aparecida,-6.78466,-38.0803,PB
350250,3502507,Aparecida,-22.8495,-45.2325,SP
350260,3502606,Aparecida d'Oeste,-20.4487,-50.8835,SP
520140,5201405,Aparecida de Goiânia,-16.8198,-49.2469,GO
520145,5201454,Aparecida do Rio Doce,-18.2941,-51.1516,GO
170110,1701101,Aparecida do Rio Negro,-9.94139,-47.9638,TO
500100,5001003,Aparecida do Taboado,-20.0873,-51.0961,MS
330015,3300159,Aperibé,-21.6252,-42.1017,RJ
320050,3200508,Apiacá,-21.1523,-41.5693,ES
510080,5100805,Apiacás,-9.53981,-57.4587,MT
350270,3502705,Apiaí,-24.5108,-48.8443,SP
210083,2100832,Apicum-Açu,-1.45862,-45.0864,MA
420125,4201257,Apiúna,-27.0375,-49.3885,SC
240100,2401008,Apodi,-5.65349,-37.7946,RN
290190,2901908,Aporá,-11.6577,-38.0814,BA
520150,5201504,Aporé,-18.9607,-51.9232,GO
290195,2901957,Apuarema,-13.8542,-39.7501,BA
410140,4101408,Apucarana,-23.55,-51.4635,PR
130014,1300144,Apuí,-7.19409,-59896,AM
230090,2300903,Apuiarés,-3.94506,-39.4359,CE
280020,2800209,Aquidabã,-10278,-37.0148,SE
500110,5001102,Aquidauana,-20.4666,-55.7868,MS
230100,2301000,Aquiraz,-3.89929,-38.3896,CE
420127,4201273,Arabutã,-27.1587,-52.1423,SC
250080,2500809,Araçagi,-6.84374,-35.3737,PB
310320,3103207,Araçaí,-19.1955,-44.2493,MG
280030,2800308,Aracaju,-10.9091,-37.0677,SE
350275,3502754,Araçariguama,-23.4366,-47.0608,SP
290205,2902054,Araças,-12.22,-38.2027,BA
230110,2301109,Aracati,-4.55826,-37.7679,CE
290200,2902005,Aracatu,-14428,-41.4648,BA
350280,3502804,Araçatuba,-21.2076,-50.4401,SP
290210,2902104,Araci,-11.3253,-38.9584,BA
310330,3103306,Aracitaba,-21.3446,-43.3736,MG
260105,2601052,Araçoiaba,-7.78391,-35.0809,PE
230120,2301208,Aracoiaba,-4.36872,-38.8125,CE
350290,3502903,Araçoiaba da Serra,-23.5029,-47.6166,SP
320060,3200607,Aracruz,-19.82,-40.2764,ES
520160,5201603,Araçu,-16.3563,-49.6804,GO
310340,3103405,Araçuaí,-16.8523,-42.0637,MG
520170,5201702,Aragarças,-15.8955,-52.2372,GO
520180,5201801,Aragoiânia,-16.9087,-49.4476,GO
170130,1701309,Aragominas,-7.16005,-48.5291,TO
170190,1701903,Araguacema,-8.80755,-49.5569,TO
170200,1702000,Araguaçu,-12.9289,-49.8231,TO
510100,5101001,Araguaiana,-15.7291,-51.8341,MT
170210,1702109,Araguaína,-7.19238,-48.2044,TO
510120,5101209,Araguainha,-16857,-53.0318,MT
170215,1702158,Araguanã,-6.58225,-48.6395,TO
210087,2100873,Araguanã,-2.94644,-45.6589,MA
520215,5202155,Araguapaz,-15.0909,-50.6315,GO
310350,3103504,Araguari,-18.6456,-48.1934,MG
170220,1702208,Araguatins,-5.64659,-48.1232,TO
210090,2100907,Araioses,-2.89091,-41905,MA
500124,5001243,Aral Moreira,-22.9385,-55.6334,MS
290220,2902203,Aramari,-12.0884,-38.4969,BA
430085,4300851,Arambaré,-30.9092,-51.5046,RS
210095,2100956,Arame,-4.88347,-46.0032,MA
350300,3503000,Aramina,-20.0882,-47.7873,SP
350310,3503109,Arandu,-23.1386,-49.0487,SP
310360,3103603,Arantina,-21.9102,-44.2555,MG
350315,3503158,Arapeí,-22.6717,-44.4441,SP
270030,2700300,Arapiraca,-9.75487,-36.6615,AL
170230,1702307,Arapoema,-7.65463,-49.0637,TO
310370,3103702,Araponga,-20.6686,-42.5178,MG
410150,4101507,Arapongas,-23.4153,-51.4259,PR
310375,3103751,Araporã,-18.4357,-49.1847,MG
410160,4101606,Arapoti,-24.1548,-49.8285,PR
410165,4101655,Arapuã,-24.3132,-51.7856,PR
310380,3103801,Arapuá,-19.0268,-46.1484,MG
510125,5101258,Araputanga,-15.4641,-58.3425,MT
420130,4201307,Araquari,-26.3754,-48.7188,SC
250090,2500908,Arara,-6.82813,-35.7552,PB
420140,4201406,Araranguá,-28.9356,-49.4918,SC
350320,3503208,Araraquara,-21.7845,-48178,SP
350330,3503307,Araras,-22.3572,-47.3842,SP
230125,2301257,Ararendá,-4.74567,-40831,CE
210100,2101004,Arari,-3.45214,-44.7665,MA
430087,4300877,Araricá,-29.6168,-50.9291,RS
230130,2301307,Araripe,-7.21319,-40.1359,CE
260110,2601102,Araripina,-7.57073,-40494,PE
330020,3300209,Araruama,-22.8697,-42.3326,RJ
410170,4101705,Araruna,-23.9315,-52.5021,PR
250100,2501005,Araruna,-6.54848,-35.7498,PB
290225,2902252,Arataca,-15.2651,-39419,BA
430090,4300901,Aratiba,-27.3978,-52.2975,RS
230140,2301406,Aratuba,-4.41229,-39.0471,CE
290230,2902302,Aratuípe,-13.0716,-39.0038,BA
280040,2800407,Arauá,-11.2614,-37.6201,SE
410180,4101804,Araucária,-25.5859,-49.4047,PR
310390,3103900,Araújos,-19.9405,-45.1671,MG
310400,3104007,Araxá,-19.5902,-46.9438,MG
310410,3104106,Arceburgo,-21359,-46.9401,MG
350335,3503356,Arco-Íris,-21.7728,-50466,SP
310420,3104205,Arcos,-20.2863,-45.5373,MG
260120,2601201,Arcoverde,-8.41519,-37.0577,PE
310430,3104304,Areado,-21.3572,-46.1421,MG
330022,3300225,Areal,-22.2283,-43.1118,RJ
350340,3503406,Arealva,-22031,-48.9135,SP
250110,2501104,Areia,-6.96396,-35.6977,PB
240110,2401107,Areia Branca,-4.95254,-37.1252,RN
280050,2800506,Areia Branca,-10758,-37.3251,SE
250115,2501153,Areia de Baraúnas,-7.11702,-36.9404,PB
250120,2501203,Areial,-7.04789,-35.9313,PB
350350,3503505,Areias,-22.5786,-44.6992,SP
350360,3503604,Areiópolis,-22.6672,-48.6681,SP
510130,5101308,Arenápolis,-14.4472,-56.8437,MT
520235,5202353,Arenópolis,-16.3837,-51.5563,GO
240120,2401206,Arês,-6.18831,-35.1608,RN
310440,3104403,Argirita,-21.6083,-42.8292,MG
310445,3104452,Aricanduva,-17.8666,-42.5533,MG
310450,3104502,Arinos,-15.9187,-46.1043,MG
510140,5101407,Aripuanã,-10.1723,-59.4568,MT
110002,1100023,Ariquemes,-9.90571,-63.0325,RO
350370,3503703,Ariranha,-21.1872,-48.7904,SP
410185,4101853,Ariranha do Ivaí,-24.3857,-51.5839,PR
330023,3300233,Armação dos Búzios,-22.7528,-41.8846,RJ
420150,4201505,Armazém,-28.2448,-49.0215,SC
230150,2301505,Arneiroz,-6.3165,-40.1653,CE
220090,2200905,Aroazes,-6.11022,-41.7822,PI
250130,2501302,Aroeiras,-7.54473,-35.7066,PB
220095,2200954,Aroeiras do Itaim,-7.24502,-41.5325,PI
220100,2201002,Arraial,-6.65075,-42.5418,PI
330025,3300258,Arraial do Cabo,-22.9774,-42.0267,RJ
170240,1702406,Arraias,-12.9287,-46.9359,TO
430100,4301008,Arroio do Meio,-29.4014,-51.9557,RS
430107,4301073,Arroio do Padre,-31.4389,-52.4246,RS
430105,4301057,Arroio do Sal,-29.5439,-49.8895,RS
430120,4301206,Arroio do Tigre,-29.3348,-53.0966,RS
430110,4301107,Arroio dos Ratos,-30.0875,-51.7275,RS
430130,4301305,Arroio Grande,-32.2327,-53.0862,RS
420160,4201604,Arroio Trinta,-26.9257,-51.3407,SC
350380,3503802,Artur Nogueira,-22.5727,-47.1727,SP
520250,5202502,Aruanã,-14.9166,-51075,GO
350390,3503901,Arujá,-23.3965,-46.32,SP
420165,4201653,Arvoredo,-27.0748,-52.4543,SC
430140,4301404,Arvorezinha,-28.8737,-52.1781,RS
420170,4201703,Ascurra,-26.9548,-49.3783,SC
350395,3503950,Aspásia,-20.16,-50728,SP
410190,4101903,Assaí,-23.3697,-50.8459,PR
230160,2301604,Assaré,-6.8669,-39.8689,CE
350400,3504008,Assis,-22.66,-50.4183,SP
120005,1200054,Assis Brasil,-10.9298,-69.5738,AC
410200,4102000,Assis Chateaubriand,-24.4168,-53.5213,PR
250135,2501351,Assunção,-7.07231,-36725,PB
220105,2201051,Assunção do Piauí,-5865,-41.0389,PI
310460,3104601,Astolfo Dutra,-21.3184,-42.8572,MG
410210,4102109,Astorga,-23.2318,-51.6668,PR
410220,4102208,Atalaia,-23.1517,-52.0551,PR
270040,2700409,Atalaia,-9.5119,-36.0086,AL
130020,1300201,Atalaia do Norte,-4.37055,-70.1967,AM
420180,4201802,Atalanta,-27.4219,-49.7789,SC
310470,3104700,Ataléia,-18.0438,-41.1149,MG
350410,3504107,Atibaia,-23.1171,-46.5563,SP
320070,3200706,Atilio Vivacqua,-20913,-41.1986,ES
170255,1702554,Augustinópolis,-5.46863,-47.8863,TO
150090,1500909,Augusto Corrêa,-1.05109,-46.6147,PA
310480,3104809,Augusto de Lima,-18.0997,-44.2655,MG
430150,4301503,Augusto Pestana,-28.5172,-53.9883,RS
240130,2401305,Augusto Severo (Campo Grande),-5.86206,-37.3135,RN
430155,4301552,Áurea,-27.6936,-52.0505,RS
290240,2902401,Aurelino Leal,-14321,-39329,BA
350420,3504206,Auriflama,-20.6836,-50.5572,SP
520260,5202601,Aurilândia,-16.6773,-50.4641,GO
230170,2301703,Aurora,-6.93349,-38.9742,CE
420190,4201901,Aurora,-27.3098,-49.6295,SC
150095,1500958,Aurora do Pará,-2.14898,-47.5677,PA
170270,1702703,Aurora do Tocantins,-12.7105,-46.4076,TO
130030,1300300,Autazes,-3.58574,-59.1256,AM
350430,3504305,Avaí,-22.1514,-49.3356,SP
350440,3504404,Avanhandava,-21.4584,-49.9509,SP
350450,3504503,Avaré,-23.1067,-48.9251,SP
150100,1501006,Aveiro,-3.60841,-55.3199,PA
220110,2201101,Avelino Lopes,-10.1345,-43.9563,PI
520280,5202809,Avelinópolis,-16.4672,-49.7579,GO
210110,2101103,Axixá,-2.83939,-44062,MA
170290,1702901,Axixá do Tocantins,-5.61275,-47.7701,TO
170300,1703008,Babaçulândia,-7.20923,-47.7613,TO
210120,2101202,Bacabal,-4.22447,-44.7832,MA
210125,2101251,Bacabeira,-2.96452,-44.3164,MA
210130,2101301,Bacuri,-1.6965,-45.1328,MA
210135,2101350,Bacurituba,-2.71,-44.7329,MA
350460,3504602,Bady Bassitt,-20.9197,-49.4385,SP
310490,3104908,Baependi,-21957,-44.8874,MG
430160,4301602,Bagé,-31.3297,-54.0999,RS
150110,1501105,Bagre,-1.90057,-50.1987,PA
250140,2501401,Baía da Traição,-6.69209,-34.9381,PB
240140,2401404,Baía Formosa,-6.37161,-35.0033,RN
290250,2902500,Baianópolis,-12.3016,-44.5388,BA
150120,1501204,Baião,-2.79021,-49.6694,PA
290260,2902609,Baixa Grande,-11.9519,-40169,BA
220115,2201150,Baixa Grande do Ribeiro,-7.84903,-45219,PI
230180,2301802,Baixio,-6.71945,-38.7134,CE
320080,3200805,Baixo Guandu,-19.5213,-41.0109,ES
350470,3504701,Balbinos,-21.8963,-49.3619,SP
310500,3105004,Baldim,-19.2832,-43.9613,MG
520310,5203104,Baliza,-16.1966,-52.5393,GO
420195,4201950,Balneário Arroio do Silva,-28.9806,-49.4237,SC
420205,4202057,Balneário Barra do Sul,-26.4597,-48.6123,SC
420200,4202008,Balneário Camboriú,-26.9926,-48.6352,SC
420207,4202073,Balneário Gaivota,-29.1527,-49.5841,SC
421280,4212809,Balneário Piçarras,-26.7639,-48.6717,SC
430163,4301636,Balneário Pinhal,-30.2419,-50.2337,RS
422000,4220000,Balneário Rincão,-28.8314,-49.2352,SC
410230,4102307,Balsa Nova,-25.5804,-49.6291,PR
350480,3504800,Bálsamo,-20.7348,-49.5865,SP
210140,2101400,Balsas,-7.53214,-46.0372,MA
310510,3105103,Bambuí,-20.0166,-45.9754,MG
230185,2301851,Banabuiú,-5.30454,-38.9132,CE
350490,3504909,Bananal,-22.6819,-44.3281,SP
250150,2501500,Bananeiras,-6.74775,-35.6246,PB
310520,3105202,Bandeira,-15.8783,-40.5622,MG
310530,3105301,Bandeira do Sul,-21.7308,-46.3833,MG
420208,4202081,Bandeirante,-26.7705,-53.6413,SC
500150,5001508,Bandeirantes,-19.9275,-54.3585,MS
410240,4102406,Bandeirantes,-23.1078,-50.3704,PR
170305,1703057,Bandeirantes do Tocantins,-7.75612,-48.5836,TO
150125,1501253,Bannach,-7.34779,-50.3959,PA
290265,2902658,Banzaê,-10.5788,-38.6212,BA
430165,4301651,Barão,-29.3725,-51.4949,RS
350500,3505005,Barão de Antonina,-23.6284,-49.5634,SP
310540,3105400,Barão de Cocais,-19.9389,-43.4755,MG
430170,4301701,Barão de Cotegipe,-27.6208,-52.3798,RS
210150,2101509,Barão de Grajaú,-6.74463,-43.0261,MA
510160,5101605,Barão de Melgaço,-16.2067,-55.9623,MT
310550,3105509,Barão de Monte Alto,-21.2444,-42.2372,MG
430175,4301750,Barão do Triunfo,-30.3891,-51.7384,RS
240145,2401453,Baraúna,-5.06977,-37.6129,RN
250153,2501534,Baraúna,-6.63484,-36.2601,PB
310560,3105608,Barbacena,-21.2214,-43.7703,MG
230190,2301901,Barbalha,-7.2982,-39.3021,CE
350510,3505104,Barbosa,-21.2657,-49.9518,SP
410250,4102505,Barbosa Ferraz,-24.0334,-52004,PR
150130,1501303,Barcarena,-1.51187,-48.6195,PA
240150,2401503,Barcelona,-5.94284,-35.9247,RN
130040,1300409,Barcelos,-0.983373,-62.9311,AM
350520,3505203,Bariri,-22073,-48.7438,SP
290270,2902708,Barra,-11.0859,-43.1459,BA
420209,4202099,Barra Bonita,-26654,-53.44,SC
350530,3505302,Barra Bonita,-22.4909,-48.5583,SP
220117,2201176,Barra D'Alcântara,-6.51645,-42.1146,PI
290280,2902807,Barra da Estiva,-13.6237,-41.3347,BA
260130,2601300,Barra de Guabiraba,-8.42075,-35.6585,PE
250160,2501609,Barra de Santa Rosa,-6.71816,-36.0671,PB
250157,2501575,Barra de Santana,-7.51809,-35.9913,PB
270050,2700508,Barra de Santo Antônio,-9.4023,-35.5101,AL
320090,3200904,Barra de São Francisco,-18.7548,-40.8965,ES
250170,2501708,Barra de São Miguel,-7.74603,-36.3209,PB
270060,2700607,Barra de São Miguel,-9.83842,-35.9057,AL
510170,5101704,Barra do Bugres,-15.0702,-57.1878,MT
350535,3505351,Barra do Chapéu,-24.4722,-49.0238,SP
290290,2902906,Barra do Choça,-14.8654,-40.5791,BA
210160,2101608,Barra do Corda,-5.49682,-45.2485,MA
510180,5101803,Barra do Garças,-15.8804,-52264,MT
430185,4301859,Barra do Guarita,-27.1927,-53.7109,RS
410270,4102703,Barra do Jacaré,-23116,-50.1842,PR
290300,2903003,Barra do Mendes,-11.81,-42059,BA
170307,1703073,Barra do Ouro,-7.69593,-47.6776,TO
330030,3300308,Barra do Piraí,-22.4715,-43.8269,RJ
430187,4301875,Barra do Quaraí,-30.2029,-57.5497,RS
430190,4301909,Barra do Ribeiro,-30.2939,-51.3014,RS
430192,4301925,Barra do Rio Azul,-27.4069,-52.4084,RS
290310,2903102,Barra do Rocha,-14.2,-39.5991,BA
350540,3505401,Barra do Turvo,-24759,-48.5013,SP
280060,2800605,Barra dos Coqueiros,-10.8996,-37.0323,SE
430195,4301958,Barra Funda,-27.9205,-53.0391,RS
310570,3105707,Barra Longa,-20.2869,-43.0402,MG
330040,3300407,Barra Mansa,-22.5481,-44.1752,RJ
420210,4202107,Barra Velha,-26637,-48.6933,SC
430180,4301800,Barracão,-27.6739,-51.4585,RS
410260,4102604,Barracão,-26.2502,-53.6324,PR
220120,2201200,Barras,-4.24468,-42.2922,PI
230195,2301950,Barreira,-4.28921,-38.6429,CE
290320,2903201,Barreiras,-12.1439,-44.9968,BA
220130,2201309,Barreiras do Piauí,-9.9296,-45.4702,PI
130050,1300508,Barreirinha,-2.79886,-57.0679,AM
210170,2101707,Barreirinhas,-2.75863,-42.8232,MA
260140,2601409,Barreiros,-8.81605,-35.1832,PE
350550,3505500,Barretos,-20.5531,-48.5698,SP
350560,3505609,Barrinha,-21.1864,-48.1636,SP
230200,2302008,Barro,-7.17188,-38.7741,CE
290323,2903235,Barro Alto,-11.7605,-41.9054,BA
520320,5203203,Barro Alto,-14.9658,-48.9086,GO
220140,2201408,Barro Duro,-5.81673,-42.5147,PI
290330,2903300,Barro Preto,-14.7948,-39476,BA
290327,2903276,Barrocas,-11.5272,-39.0776,BA
170310,1703107,Barrolândia,-9.83404,-48.7252,TO
230205,2302057,Barroquinha,-3.02051,-41.1358,CE
430200,4302006,Barros Cassal,-29.0947,-52.5836,RS
310590,3105905,Barroso,-21.1907,-43972,MG
350570,3505708,Barueri,-23.5057,-46879,SP
350580,3505807,Bastos,-21921,-50.7357,SP
500190,5001904,Bataguassu,-21.7159,-52.4221,MS
220150,2201507,Batalha,-4.0223,-42.0787,PI
270070,2700706,Batalha,-9.6742,-37133,AL
350590,3505906,Batatais,-20.8929,-47.5921,SP
500200,5002001,Batayporã,-22.2944,-53.2705,MS
230210,2302107,Baturité,-4.32598,-38.8812,CE
350600,3506003,Bauru,-22.3246,-49.0871,SP
250180,2501807,Bayeux,-7.1238,-34.9293,PB
350610,3506102,Bebedouro,-20.9491,-48.4791,SP
230220,2302206,Beberibe,-4.17741,-38.1271,CE
230230,2302305,Bela Cruz,-3.04996,-40.1671,CE
500210,5002100,Bela Vista,-22.1073,-56.5263,MS
410275,4102752,Bela Vista da Caroba,-25.8842,-53.6725,PR
520330,5203302,Bela Vista de Goiás,-16.9693,-48.9513,GO
310600,3106002,Bela Vista de Minas,-19.8302,-43.0922,MG
210177,2101772,Bela Vista do Maranhão,-3.72618,-45.3075,MA
410280,4102802,Bela Vista do Paraíso,-22.9937,-51.1927,PR
220155,2201556,Bela Vista do Piauí,-7.98809,-41.8675,PI
420213,4202131,Bela Vista do Toldo,-26.2746,-50.4664,SC
210173,2101731,Belágua,-3.15485,-43.5122,MA
150140,1501402,Belém,-1.4554,-48.4898,PA
250190,2501906,Belém,-6.74261,-35.5166,PB
270080,2700805,Belém,-9.57047,-36.4904,AL
260150,2601508,Belém de Maria,-8.62504,-35.8335,PE
250200,2502003,Belém do Brejo do Cruz,-6.18515,-37.5348,PB
220157,2201572,Belém do Piauí,-7.36652,-40.9688,PI
260160,2601607,Belém do São Francisco,-8.75046,-38.9623,PE
330045,3300456,Belford Roxo,-22764,-43.3992,RJ
310610,3106101,Belmiro Braga,-21944,-43.4084,MG
420215,4202156,Belmonte,-26843,-53.5758,SC
290340,2903409,Belmonte,-15.8608,-38.8758,BA
290350,2903508,Belo Campo,-15.0334,-41.2652,BA
310620,3106200,Belo Horizonte,-19.9102,-43.9266,MG
260170,2601706,Belo Jardim,-8.3313,-36.4258,PE
270090,2700904,Belo Monte,-9.82272,-37277,AL
310630,3106309,Belo Oriente,-19.2199,-42.4828,MG
310640,3106408,Belo Vale,-20.4077,-44.0275,MG
150145,1501451,Belterra,-2.63609,-54.9374,PA
220160,2201606,Beneditinos,-5.45676,-42.3638,PI
210180,2101806,Benedito Leite,-7.21037,-44.5577,MA
420220,4202206,Benedito Novo,-26781,-49.3593,SC
150150,1501501,Benevides,-1.36183,-48.2434,PA
130060,1300607,Benjamin Constant,-4.37768,-70.0342,AM
430205,4302055,Benjamin Constant do Sul,-27.5086,-52.5995,RS
350620,3506201,Bento de Abreu,-21.2686,-50814,SP
240160,2401602,Bento Fernandes,-5.69906,-35813,RN
430210,4302105,Bento Gonçalves,-29.1662,-51.5165,RS
210190,2101905,Bequimão,-2.44162,-44.7842,MA
310650,3106507,Berilo,-16.9567,-42.4606,MG
310665,3106655,Berizal,-15.61,-41.7432,MG
250205,2502052,Bernardino Batista,-6.44572,-38.5521,PB
350630,3506300,Bernardino de Campos,-23.0164,-49.4679,SP
210193,2101939,Bernardo do Mearim,-4.62666,-44.7608,MA
170320,1703206,Bernardo Sayão,-7.87481,-48.8893,TO
350635,3506359,Bertioga,-23.8486,-46.1396,SP
220170,2201705,Bertolínia,-7.63338,-43.9498,PI
310660,3106606,Bertópolis,-17059,-40.58,MG
130063,1300631,Beruri,-3.89874,-61.3616,AM
260180,2601805,Betânia,-8.26787,-38.0345,PE
220173,2201739,Betânia do Piauí,-8.14376,-40.7989,PI
310670,3106705,Betim,-19.9668,-44.2008,MG
260190,2601904,Bezerros,-8.2328,-35796,PE
310680,3106804,Bias Fortes,-21602,-43.7574,MG
310690,3106903,Bicas,-21.7232,-43056,MG
420230,4202305,Biguaçu,-27496,-48.6598,SC
350640,3506409,Bilac,-21404,-50.4746,SP
310700,3107000,Biquinhas,-18.7754,-45.4974,MG
350650,3506508,Birigui,-21291,-50.3432,SP
350660,3506607,Biritiba-Mirim,-23.5698,-46.0407,SP
290360,2903607,Biritinga,-11.6072,-38.8051,BA
410290,4102901,Bituruna,-26.1607,-51.5518,PR
420240,4202404,Blumenau,-26.9155,-49.0709,SC
410300,4103008,Boa Esperança,-24.2467,-52.7876,PR
310710,3107109,Boa Esperança,-21.0927,-45.5612,MG
320100,3201001,Boa Esperança,-18.5395,-40.3025,ES
410302,4103024,Boa Esperança do Iguaçu,-25.6324,-53.2108,PR
350670,3506706,Boa Esperança do Sul,-21.9918,-48.3906,SP
220177,2201770,Boa Hora,-4.41404,-42.1357,PI
290370,2903706,Boa Nova,-14.3598,-40.2064,BA
250210,2502102,Boa Ventura,-7.40982,-38.2113,PB
410304,4103040,Boa Ventura de São Roque,-24.8688,-51.6276,PR
230240,2302404,Boa Viagem,-5.11258,-39.7337,CE
140010,1400100,Boa Vista,2.82384,-60.6753,RR
250215,2502151,Boa Vista,-7.26365,-36.2357,PB
410305,4103057,Boa Vista da Aparecida,-25.4308,-53.4117,PR
430215,4302154,Boa Vista das Missões,-27.6671,-53.3102,RS
430220,4302204,Boa Vista do Buricá,-27.6693,-54.1082,RS
430222,4302220,Boa Vista do Cadeado,-28.5791,-53.8108,RS
210197,2101970,Boa Vista do Gurupi,-1.77614,-46.3002,MA
430223,4302238,Boa Vista do Incra,-28.8185,-53391,RS
130068,1300680,Boa Vista do Ramos,-2.97409,-57.5873,AM
430225,4302253,Boa Vista do Sul,-29.3544,-51.6687,RS
290380,2903805,Boa Vista do Tupim,-12.6498,-40.6064,BA
270100,2701001,Boca da Mata,-9.64308,-36.2125,AL
130070,1300706,Boca do Acre,-8.74232,-67.3919,AM
220180,2201804,Bocaina,-6.94124,-41.3168,PI
350680,3506805,Bocaina,-22.1365,-48523,SP
310720,3107208,Bocaina de Minas,-22.1697,-44.3972,MG
420243,4202438,Bocaina do Sul,-27.7455,-49.9423,SC
310730,3107307,Bocaiúva,-17.1135,-43.8104,MG
410310,4103107,Bocaiúva do Sul,-25.2066,-49.1141,PR
240165,2401651,Bodó,-5.98027,-36.4167,RN
260200,2602001,Bodocó,-7.77759,-39.9338,PE
500215,5002159,Bodoquena,-20537,-56.7127,MS
350690,3506904,Bofete,-23.1055,-48.2582,SP
350700,3507001,Boituva,-23.2855,-47.6786,SP
260210,2602100,Bom Conselho,-9.16919,-36.6857,PE
310740,3107406,Bom Despacho,-19.7386,-45.2622,MG
330050,3300506,Bom Jardim,-22.1545,-42.4251,RJ
260220,2602209,Bom Jardim,-7.79695,-35.5784,PE
210200,2102002,Bom Jardim,-3.54129,-45606,MA
420250,4202503,Bom Jardim da Serra,-28.3377,-49.6373,SC
520340,5203401,Bom Jardim de Goiás,-16.2063,-52.1728,GO
310750,3107505,Bom Jardim de Minas,-21.9479,-44.1885,MG
420253,4202537,Bom Jesus,-26.7326,-52.3919,SC
430230,4302303,Bom Jesus,-28.6697,-50.4295,RS
220190,2201903,Bom Jesus,-9.07124,-44359,PI
240170,2401701,Bom Jesus,-5.98648,-35.5792,RN
250220,2502201,Bom Jesus,-6.81601,-38.6453,PB
290390,2903904,Bom Jesus da Lapa,-13.2506,-43.4108,BA
310760,3107604,Bom Jesus da Penha,-21.0148,-46.5174,MG
290395,2903953,Bom Jesus da Serra,-14.3663,-40.5126,BA
210203,2102036,Bom Jesus das Selvas,-4.47638,-46.8641,MA
520350,5203500,Bom Jesus de Goiás,-18.2173,-49.74,GO
310770,3107703,Bom Jesus do Amparo,-19.7054,-43.4782,MG
510185,5101852,Bom Jesus do Araguaia,-12.1706,-51.5032,MT
310780,3107802,Bom Jesus do Galho,-19836,-42.3165,MG
330060,3300605,Bom Jesus do Itabapoana,-21.1449,-41.6822,RJ
320110,3201100,Bom Jesus do Norte,-21.1173,-41.6731,ES
420257,4202578,Bom Jesus do Oeste,-26.6927,-53.0967,SC
410315,4103156,Bom Jesus do Sul,-26.1958,-53.5955,PR
150157,1501576,Bom Jesus do Tocantins,-5.0424,-48.6047,PA
170330,1703305,Bom Jesus do Tocantins,-8.96306,-48165,TO
350710,3507100,Bom Jesus dos Perdões,-23.1356,-46.4675,SP
210207,2102077,Bom Lugar,-4.37311,-45.0326,MA
430235,4302352,Bom Princípio,-29.4856,-51.3548,RS
220191,2201919,Bom Princípio do Piauí,-3.19631,-41.6403,PI
430237,4302378,Bom Progresso,-27.5399,-53.8716,RS
310790,3107901,Bom Repouso,-22.4675,-46144,MG
420260,4202602,Bom Retiro,-27799,-49487,SC
430240,4302402,Bom Retiro do Sul,-29.6071,-51.9456,RS
310800,3108008,Bom Sucesso,-21.0329,-44.7537,MG
410320,4103206,Bom Sucesso,-23.7063,-51.7671,PR
250230,2502300,Bom Sucesso,-6.44176,-37.9234,PB
350715,3507159,Bom Sucesso de Itararé,-24.3155,-49.1451,SP
410322,4103222,Bom Sucesso do Sul,-26.0731,-52.8353,PR
420245,4202453,Bombinhas,-27.1382,-48.5146,SC
140015,1400159,Bonfim,3.36161,-59.8333,RR
310810,3108107,Bonfim,-20.3302,-44.2366,MG
220192,2201929,Bonfim do Piauí,-9.1605,-42.8865,PI
520355,5203559,Bonfinópolis,-16.6173,-48.9616,GO
310820,3108206,Bonfinópolis de Minas,-16568,-45.9839,MG
290400,2904001,Boninal,-12.7069,-41.8286,BA
260230,2602308,Bonito,-8.47163,-35.7292,PE
290405,2904050,Bonito,-11.9668,-41.2647,BA
150160,1501600,Bonito,-1.36745,-47.3066,PA
500220,5002209,Bonito,-21.1261,-56.4836,MS
310825,3108255,Bonito de Minas,-15.3231,-44.7543,MG
250240,2502409,Bonito de Santa Fé,-7.31341,-38.5133,PB
520357,5203575,Bonópolis,-13.6329,-49.8106,GO
250250,2502508,Boqueirão,-7487,-36.1309,PB
430245,4302451,Boqueirão do Leão,-29.3046,-52.4284,RS
220194,2201945,Boqueirão do Piauí,-4.48181,-42.1212,PI
280067,2800670,Boquim,-11.1397,-37.6195,SE
290410,2904100,Boquira,-12.8205,-42.7324,BA
350720,3507209,Borá,-22.2696,-50.5409,SP
350730,3507308,Boracéia,-22.1926,-48.7808,SP
130080,1300805,Borba,-4.39154,-59.5874,AM
250270,2502706,Borborema,-6.80199,-35.6187,PB
350740,3507407,Borborema,-21.6214,-49.0741,SP
310830,3108305,Borda da Mata,-22.2707,-46.1653,MG
350745,3507456,Borebi,-22.5728,-48.9707,SP
410330,4103305,Borrazópolis,-23.9366,-51.5875,PR
430250,4302501,Bossoroca,-28.7291,-54.9035,RS
310840,3108404,Botelhos,-21.6412,-46391,MG
350750,3507506,Botucatu,-22.8837,-48.4437,SP
310850,3108503,Botumirim,-16.8657,-43.0086,MG
290420,2904209,Botuporã,-13.3772,-42.5163,BA
420270,4202701,Botuverá,-27.2007,-49.0689,SC
430258,4302584,Bozano,-28.3659,-53772,RS
420280,4202800,Braço do Norte,-28.2681,-49.1701,SC
420285,4202859,Braço do Trombudo,-27.3586,-49.8821,SC
430260,4302600,Braga,-27.6173,-53.7405,RS
150170,1501709,Bragança,-1.06126,-46.7826,PA
350760,3507605,Bragança Paulista,-22.9527,-46.5419,SP
410335,4103354,Braganey,-24.8173,-53.1218,PR
270110,2701100,Branquinha,-9.23342,-36.0162,AL
310870,3108701,Brás Pires,-20.8419,-43.2406,MG
150172,1501725,Brasil Novo,-3.29792,-52534,PA
500230,5002308,Brasilândia,-21.2544,-52.0365,MS
310855,3108552,Brasilândia de Minas,-16.9999,-46.0081,MG
410337,4103370,Brasilândia do Sul,-24.1978,-53.5275,PR
170360,1703602,Brasilândia do Tocantins,-8.38918,-48.4822,TO
120010,1200104,Brasiléia,-10995,-68.7497,AC
220196,2201960,Brasileira,-4.1337,-41.7859,PI
530010,5300108,Brasília,-15.7795,-47.9297,DF
310860,3108602,Brasília de Minas,-16.2104,-44.4299,MG
510190,5101902,Brasnorte,-12.1474,-57.9833,MT
350770,3507704,Braúna,-21499,-50.3175,SP
310880,3108800,Braúnas,-19.0562,-42.7099,MG
520360,5203609,Brazabrantes,-16.4281,-49.3863,GO
310890,3108909,Brazópolis,-22.4743,-45.6166,MG
260240,2602407,Brejão,-9.02915,-36566,PE
320115,3201159,Brejetuba,-20.1395,-41.2954,ES
240180,2401800,Brejinho,-6.18566,-35.3591,RN
260250,2602506,Brejinho,-7.34694,-37.2865,PE
170370,1703701,Brejinho de Nazaré,-11.0058,-48.5683,TO
210210,2102101,Brejo,-3.67796,-42.7527,MA
350775,3507753,Brejo Alegre,-21.1651,-50.1861,SP
260260,2602605,Brejo da Madre de Deus,-8.14933,-36.3741,PE
210215,2102150,Brejo de Areia,-4334,-45581,MA
250280,2502805,Brejo do Cruz,-6.34185,-37.4943,PB
220198,2201988,Brejo do Piauí,-8.20314,-42.8229,PI
250290,2502904,Brejo dos Santos,-6.37065,-37.8253,PB
280070,2800704,Brejo Grande,-10.4297,-36.4611,SE
150175,1501758,Brejo Grande do Araguaia,-5.69822,-48.4103,PA
230250,2302503,Brejo Santo,-7.48469,-38.9799,CE
290430,2904308,Brejões,-13.1039,-39.7988,BA
290440,2904407,Brejolândia,-12.4815,-43.9679,BA
150178,1501782,Breu Branco,-3.77191,-49.5735,PA
150180,1501808,Breves,-1.68036,-50.4791,PA
520380,5203807,Britânia,-15.2428,-51.1602,GO
430265,4302659,Brochier,-29.5501,-51.5945,RS
350780,3507803,Brodowski,-20.9845,-47.6572,SP
350790,3507902,Brotas,-22.2795,-48.1251,SP
290450,2904506,Brotas de Macaúbas,-11.9915,-42.6326,BA
310900,3109006,Brumadinho,-20151,-44.2007,MG
290460,2904605,Brumado,-14.2021,-41.6696,BA
420287,4202875,Brunópolis,-27.3058,-50.8684,SC
420290,4202909,Brusque,-27.0977,-48.9107,SC
310910,3109105,Bueno Brandão,-22.4383,-46.3491,MG
310920,3109204,Buenópolis,-17.8744,-44.1775,MG
260270,2602704,Buenos Aires,-7.72449,-35.3182,PE
290470,2904704,Buerarema,-14.9595,-39.3028,BA
310925,3109253,Bugre,-19.4231,-42.2552,MG
260280,2602803,Buíque,-8.61954,-37.1606,PE
120013,1200138,Bujari,-9.81528,-67955,AC
150190,1501907,Bujaru,-1.51762,-48.0381,PA
350800,3508009,Buri,-23.7977,-48.5958,SP
350810,3508108,Buritama,-21.0661,-50.1475,SP
210220,2102200,Buriti,-3.94169,-42.9179,MA
520390,5203906,Buriti Alegre,-18.1378,-49.0404,GO
210230,2102309,Buriti Bravo,-5.83239,-43.8353,MA
520393,5203939,Buriti de Goiás,-16.1792,-50.4302,GO
170380,1703800,Buriti do Tocantins,-5.31448,-48.2271,TO
220200,2202000,Buriti dos Lopes,-3.18259,-41.8695,PI
220202,2202026,Buriti dos Montes,-5.30584,-41.0933,PI
210232,2102325,Buriticupu,-4.32375,-46.4409,MA
520396,5203962,Buritinópolis,-14.4772,-46.4076,GO
290475,2904753,Buritirama,-10.7171,-43.6302,BA
210235,2102358,Buritirana,-5.59823,-47.0131,MA
110045,1100452,Buritis,-10.1943,-63.8324,RO
310930,3109303,Buritis,-15.6218,-46.4221,MG
350820,3508207,Buritizal,-20.1911,-47.7096,SP
310940,3109402,Buritizeiro,-17.3656,-44.9606,MG
430270,4302709,Butiá,-30.1179,-51.9601,RS
130083,1300839,Caapiranga,-3.31537,-61.2206,AM
250300,2503001,Caaporã,-7.51351,-34.9055,PB
500240,5002407,Caarapó,-22.6368,-54.8209,MS
290480,2904803,Caatiba,-14.9699,-40.4092,BA
250310,2503100,Cabaceiras,-7.48899,-36287,PB
290485,2904852,Cabaceiras do Paraguaçu,-12.5317,-39.1902,BA
310945,3109451,Cabeceira Grande,-16.0335,-47.0862,MG
520400,5204003,Cabeceiras,-15.7995,-46.9265,GO
220205,2202059,Cabeceiras do Piauí,-4.4773,-42.3069,PI
250320,2503209,Cabedelo,-6.98731,-34.8284,PB
110003,1100031,Cabixi,-13.4945,-60552,RO
260290,2602902,Cabo de Santo Agostinho,-8.28218,-35.0253,PE
330070,3300704,Cabo Frio,-22.8894,-42.0286,RJ
310950,3109501,Cabo Verde,-21.4699,-46.3919,MG
350830,3508306,Cabrália Paulista,-22.4576,-49.3393,SP
350840,3508405,Cabreúva,-23.3053,-47.1362,SP
260300,2603009,Cabrobó,-8.50548,-39.3094,PE
420300,4203006,Caçador,-26.7757,-51012,SC
350850,3508504,Caçapava,-23.0992,-45.7076,SP
430280,4302808,Caçapava do Sul,-30.5144,-53.4827,RS
110060,1100601,Cacaulândia,-10349,-62.9043,RO
430290,4302907,Cacequi,-29.8883,-54822,RS
510250,5102504,Cáceres,-16.0764,-57.6818,MT
290490,2904902,Cachoeira,-12.5994,-38.9587,BA
520410,5204102,Cachoeira Alta,-18.7618,-50.9432,GO
310960,3109600,Cachoeira da Prata,-19521,-44.4544,MG
520420,5204201,Cachoeira de Goiás,-16.6635,-50646,GO
310970,3109709,Cachoeira de Minas,-22.3511,-45.7809,MG
310270,3102704,Cachoeira de Pajeú,-15.9688,-41.4948,MG
150200,1502004,Cachoeira do Arari,-1.01226,-48.9503,PA
150195,1501956,Cachoeira do Piriá,-1.75974,-46.5459,PA
430300,4303004,Cachoeira do Sul,-30033,-52.8928,RS
250330,2503308,Cachoeira dos Índios,-6.91353,-38676,PB
520425,5204250,Cachoeira Dourada,-18.4859,-49.4766,GO
310980,3109808,Cachoeira Dourada,-18.5161,-49.5039,MG
210237,2102374,Cachoeira Grande,-2.93074,-44.0528,MA
350860,3508603,Cachoeira Paulista,-22.6665,-45.0154,SP
330080,3300803,Cachoeiras de Macacu,-22.4658,-42.6523,RJ
170382,1703826,Cachoeirinha,-6.1156,-47.9234,TO
260310,2603108,Cachoeirinha,-8.48668,-36.2402,PE
430310,4303103,Cachoeirinha,-29.9472,-51.1016,RS
320120,3201209,Cachoeiro de Itapemirim,-20.8462,-41.1198,ES
250340,2503407,Cacimba de Areia,-7.12128,-37.1563,PB
250350,2503506,Cacimba de Dentro,-6.6386,-35.7778,PB
250355,2503555,Cacimbas,-7.20721,-37.0604,PB
270120,2701209,Cacimbinhas,-9.40121,-36.9911,AL
430320,4303202,Cacique Doble,-27767,-51.6597,RS
110004,1100049,Cacoal,-11.4343,-61.4562,RO
350870,3508702,Caconde,-21528,-46.6437,SP
520430,5204300,Caçu,-18.5594,-51.1328,GO
290500,2905008,Caculé,-14.5003,-42.2229,BA
290510,2905107,Caém,-11.0677,-40432,BA
310990,3109907,Caetanópolis,-19.2971,-44.4189,MG
290515,2905156,Caetanos,-14.3347,-40.9175,BA
311000,3110004,Caeté,-19.8826,-43.6704,MG
260320,2603207,Caetés,-8.7803,-36.6268,PE
290520,2905206,Caetité,-14.0684,-42.4861,BA
290530,2905305,Cafarnaum,-11.6914,-41.4688,BA
410340,4103404,Cafeara,-22789,-51.7142,PR
350880,3508801,Cafelândia,-21.8031,-49.6092,SP
410345,4103453,Cafelândia,-24.6189,-53.3207,PR
410347,4103479,Cafezal do Sul,-23.9005,-53.5124,PR
350890,3508900,Caiabu,-22.0127,-51.2394,SP
311010,3110103,Caiana,-20.6956,-41.9292,MG
520440,5204409,Caiapônia,-16.9539,-51.8091,GO
430330,4303301,Caibaté,-28.2905,-54.6454,RS
420310,4203105,Caibi,-27.0741,-53.2458,SC
430340,4303400,Caiçara,-27.2791,-53.4257,RS
250360,2503605,Caiçara,-6.62115,-35.4581,PB
240185,2401859,Caiçara do Norte,-5.07091,-36.0717,RN
240190,2401909,Caiçara do Rio do Vento,-5.76541,-35.9938,RN
240200,2402006,Caicó,-6.45441,-37.1067,RN
350900,3509007,Caieiras,-23.3607,-46.7397,SP
290540,2905404,Cairu,-13.4904,-39.0465,BA
350910,3509106,Caiuá,-21.8322,-51.9969,SP
350920,3509205,Cajamar,-23355,-46.8781,SP
210240,2102408,Cajapió,-2.87326,-44.6741,MA
210250,2102507,Cajari,-3.32742,-45.0145,MA
350925,3509254,Cajati,-24.7324,-48.1223,SP
250370,2503704,Cajazeiras,-6.88004,-38.5577,PB
220207,2202075,Cajazeiras do Piauí,-6.79667,-42.3903,PI
250375,2503753,Cajazeirinhas,-6.96016,-37.8009,PB
350930,3509304,Cajobi,-20.8773,-48.8063,SP
270130,2701308,Cajueiro,-9.3994,-36.1559,AL
220208,2202083,Cajueiro da Praia,-2.93111,-41.3408,PI
311020,3110202,Cajuri,-20.7903,-42.7925,MG
350940,3509403,Cajuru,-21.2749,-47303,SP
260330,2603306,Calçado,-8.73108,-36.3366,PE
160020,1600204,Calçoene,2.50475,-50.9512,AP
311030,3110301,Caldas,-21.9183,-46.3843,MG
250380,2503803,Caldas Brandão,-7.1025,-35.3272,PB
520450,5204508,Caldas Novas,-17.7441,-48.6246,GO
520455,5204557,Caldazinha,-16.7117,-49.0013,GO
290550,2905503,Caldeirão Grande,-11.0208,-40.2956,BA
220209,2202091,Caldeirão Grande do Piauí,-7.3314,-40.6366,PI
410350,4103503,Califórnia,-23.6566,-51.3574,PR
420315,4203154,Calmon,-26.5942,-51095,SC
260340,2603405,Calumbi,-7.93551,-38.1482,PE
290560,2905602,Camacan,-15.4142,-39.4919,BA
290570,2905701,Camaçari,-12.6996,-38.3263,BA
311040,3110400,Camacho,-20.6294,-45.1593,MG
250390,2503902,Camalaú,-7.88503,-36.8242,PB
290580,2905800,Camamu,-13.9398,-39.1071,BA
311050,3110509,Camanducaia,-22.7515,-46.1494,MG
500260,5002605,Camapuã,-19.5347,-54.0431,MS
430350,4303509,Camaquã,-30.8489,-51.8043,RS
260345,2603454,Camaragibe,-8.02351,-34.9782,PE
430355,4303558,Camargo,-28588,-52.2003,RS
410360,4103602,Cambará,-23.0423,-50.0753,PR
430360,4303608,Cambará do Sul,-29.0474,-50.1465,RS
410370,4103701,Cambé,-23.2766,-51.2798,PR
410380,4103800,Cambira,-23589,-51.5792,PR
420320,4203204,Camboriú,-27.0241,-48.6503,SC
330090,3300902,Cambuci,-21.5691,-41.9187,RJ
311060,3110608,Cambuí,-22.6115,-46.0572,MG
311070,3110707,Cambuquira,-21854,-45.2896,MG
150210,1502103,Cametá,-2.24295,-49.4979,PA
230260,2302602,Camocim,-2.9005,-40.8544,CE
260350,2603504,Camocim de São Félix,-8.35865,-35.7653,PE
311080,3110806,Campanário,-18.2427,-41.7355,MG
311090,3110905,Campanha,-21836,-45.4004,MG
311100,3111002,Campestre,-21.7079,-46.2381,MG
270135,2701357,Campestre,-8.84723,-35.5685,AL
430367,4303673,Campestre da Serra,-28.7926,-51.0941,RS
520460,5204607,Campestre de Goiás,-16.7624,-49695,GO
210255,2102556,Campestre do Maranhão,-6.17075,-47.3625,MA
410390,4103909,Campina da Lagoa,-24.5893,-52.7976,PR
430370,4303707,Campina das Missões,-27.9888,-54.8416,RS
350945,3509452,Campina do Monte Alegre,-23.5895,-48.4758,SP
410395,4103958,Campina do Simão,-25.0802,-51.8237,PR
250400,2504009,Campina Grande,-7.22196,-35.8731,PB
410400,4104006,Campina Grande do Sul,-25.3044,-49.0551,PR
311110,3111101,Campina Verde,-19.5382,-49.4862,MG
520465,5204656,Campinaçu,-13787,-48.5704,GO
510260,5102603,Campinápolis,-14.5162,-52893,MT
350950,3509502,Campinas,-22.9053,-47.0659,SP
220210,2202109,Campinas do Piauí,-7.6593,-41.8775,PI
430380,4303806,Campinas do Sul,-27.7174,-52.6248,RS
520470,5204706,Campinorte,-14.3137,-49.1511,GO
420330,4203303,Campo Alegre,-26195,-49.2676,SC
270140,2701407,Campo Alegre,-9.78451,-36.3525,AL
520480,5204805,Campo Alegre de Goiás,-17.6363,-47.7768,GO
290590,2905909,Campo Alegre de Lourdes,-9.52221,-43.0126,BA
220211,2202117,Campo Alegre do Fidalgo,-8.38236,-41.8344,PI
311115,3111150,Campo Azul,-16.5028,-44.8096,MG
311120,3111200,Campo Belo,-20.8932,-45.2699,MG
420340,4203402,Campo Belo do Sul,-27.8975,-50.7595,SC
430390,4303905,Campo Bom,-29.6747,-51.0606,RS
410405,4104055,Campo Bonito,-25.0294,-52.9939,PR
280100,2801009,Campo do Brito,-10.7392,-37.4954,SE
311130,3111309,Campo do Meio,-21.1127,-45.8273,MG
410410,4104105,Campo do Tenente,-25.98,-49.6844,PR
420350,4203501,Campo Erê,-26.3931,-53.0856,SC
311140,3111408,Campo Florido,-19.7631,-48.5716,MG
290600,2906006,Campo Formoso,-10.5105,-40.32,BA
270150,2701506,Campo Grande,-9.95542,-36.7926,AL
500270,5002704,Campo Grande,-20.4486,-54.6295,MS
220213,2202133,Campo Grande do Piauí,-7.12827,-41.0315,PI
410420,4104204,Campo Largo,-25.4525,-49529,PR
220217,2202174,Campo Largo do Piauí,-3.80441,-42.64,PI
520485,5204854,Campo Limpo de Goiás,-16.2971,-49.0895,GO
350960,3509601,Campo Limpo Paulista,-23.2078,-46.7889,SP
410425,4104253,Campo Magro,-25.3687,-49.4501,PR
220220,2202208,Campo Maior,-4.8217,-42.1641,PI
410430,4104303,Campo Mourão,-24.0463,-52378,PR
430400,4304002,Campo Novo,-27.6792,-53.8052,RS
110070,1100700,Campo Novo de Rondônia,-10.5712,-63.6266,RO
510263,5102637,Campo Novo do Parecis,-13.6587,-57.8907,MT
240210,2402105,Campo Redondo,-6.23829,-36.1888,RN
510267,5102678,Campo Verde,-15545,-55.1626,MT
311150,3111507,Campos Altos,-19.6914,-46.1725,MG
520490,5204904,Campos Belos,-13035,-46.7681,GO
430410,4304101,Campos Borges,-28.8871,-53.0008,RS
510268,5102686,Campos de Júlio,-13.7242,-59.2858,MT
350970,3509700,Campos do Jordão,-22.7296,-45.5833,SP
330100,3301009,Campos dos Goytacazes,-21.7622,-41.3181,RJ
311160,3111606,Campos Gerais,-21237,-45.7569,MG
170384,1703842,Campos Lindos,-7.98956,-46.8645,TO
420360,4203600,Campos Novos,-27.4002,-51.2276,SC
350980,3509809,Campos Novos Paulista,-22602,-49.9987,SP
230270,2302701,Campos Sales,-7.06761,-40.3687,CE
520495,5204953,Campos Verdes,-14.2442,-49.6528,GO
260360,2603603,Camutanga,-7.40545,-35.2664,PE
311190,3111903,Cana Verde,-21.0232,-45.1801,MG
311170,3111705,Canaã,-20.6869,-42.6167,MG
150215,1502152,Canaã dos Carajás,-6.49659,-49.8776,PA
510269,5102694,Canabrava do Norte,-11.0556,-51.8209,MT
350990,3509908,Cananéia,-25.0144,-47.9341,SP
270160,2701605,Canapi,-9.11932,-37.5967,AL
290610,2906105,Canápolis,-13.0725,-44201,BA
311180,3111804,Canápolis,-18.7212,-49.2035,MG
290620,2906204,Canarana,-11.6858,-41.7677,BA
510270,5102702,Canarana,-13.5515,-52.2705,MT
350995,3509957,Canas,-22.7003,-45.0521,SP
220225,2202251,Canavieira,-7.68821,-43.7233,PI
290630,2906303,Canavieiras,-15.6722,-38.9536,BA
290640,2906402,Candeal,-11.8049,-39.1203,BA
290650,2906501,Candeias,-12.6716,-38.5472,BA
311200,3112000,Candeias,-20.7692,-45.2765,MG
110080,1100809,Candeias do Jamari,-8.7907,-63.7005,RO
430420,4304200,Candelária,-29.6684,-52.7895,RS
290660,2906600,Candiba,-14.4097,-42.8667,BA
410440,4104402,Cândido de Abreu,-24.5649,-51.3372,PR
430430,4304309,Cândido Godói,-27.9515,-54.7517,RS
210260,2102606,Cândido Mendes,-1.43265,-45.7161,MA
351000,3510005,Cândido Mota,-22.7471,-50.3873,SP
351010,3510104,Cândido Rodrigues,-21.3275,-48.6327,SP
290670,2906709,Cândido Sales,-15.4993,-41.2414,BA
430435,4304358,Candiota,-31.5516,-53.6773,RS
410442,4104428,Candói,-25.5758,-52.0409,PR
430440,4304408,Canela,-29356,-50.8119,RS
420370,4203709,Canelinha,-27.2616,-48.7658,SC
240220,2402204,Canguaretama,-6.37193,-35.1281,RN
430450,4304507,Canguçu,-31396,-52.6783,RS
280110,2801108,Canhoba,-10.1365,-36.9806,SE
260370,2603702,Canhotinho,-8.87652,-36.1979,PE
230280,2302800,Canindé,-4.35162,-39.3155,CE
280120,2801207,Canindé de São Francisco,-9.64882,-37.7923,SE
351015,3510153,Canitar,-23004,-49.7839,SP
430460,4304606,Canoas,-29.9128,-51.1857,RS
420380,4203808,Canoinhas,-26.1766,-50395,SC
290680,2906808,Cansanção,-10.6647,-39.4944,BA
140017,1400175,Cantá,2.60994,-60.6058,RR
330110,3301108,Cantagalo,-21.9797,-42.3664,RJ
410445,4104451,Cantagalo,-25.3734,-52.1198,PR
311205,3112059,Cantagalo,-18.5248,-42.6223,MG
210270,2102705,Cantanhede,-3.63757,-44383,MA
220230,2202307,Canto do Buriti,-8.1111,-42.9517,PI
290682,2906824,Canudos,-9.90014,-39.1471,BA
430461,4304614,Canudos do Vale,-29.3271,-52.2374,RS
130090,1300904,Canutama,-6.52582,-64.3953,AM
150220,1502202,Capanema,-1.20529,-47.1778,PA
410450,4104501,Capanema,-25.6691,-53.8055,PR
420325,4203253,Capão Alto,-27.9389,-50.5098,SC
351020,3510203,Capão Bonito,-24.0113,-48.3482,SP
430462,4304622,Capão Bonito do Sul,-28.1254,-51.3961,RS
430463,4304630,Capão da Canoa,-29.7642,-50.0282,RS
430465,4304655,Capão do Cipó,-28.9312,-54.5558,RS
430466,4304663,Capão do Leão,-31.7565,-52.4889,RS
311210,3112109,Caparaó,-20.5289,-41.9061,MG
270170,2701704,Capela,-9.41504,-36.0826,AL
280130,2801306,Capela,-10.5069,-37.0628,SE
430468,4304689,Capela de Santana,-29.6961,-51328,RS
351030,3510302,Capela do Alto,-23.4685,-47.7388,SP
290685,2906857,Capela do Alto Alegre,-11.6658,-39.8349,BA
311220,3112208,Capela Nova,-20.9179,-43622,MG
311230,3112307,Capelinha,-17.6888,-42.5147,MG
311240,3112406,Capetinga,-20.6163,-47.0571,MG
250403,2504033,Capim,-6.91624,-35.1673,PB
311250,3112505,Capim Branco,-19.5471,-44.1304,MG
290687,2906873,Capim Grosso,-11.3797,-40.0089,BA
311260,3112604,Capinópolis,-18.6862,-49.5706,MG
420390,4203907,Capinzal,-27.3473,-51.6057,SC
210275,2102754,Capinzal do Norte,-4.7236,-44328,MA
230290,2302909,Capistrano,-4.45569,-38.9048,CE
430469,4304697,Capitão,-29.2674,-51.9853,RS
311265,3112653,Capitão Andrade,-19.0748,-41.8614,MG
220240,2202406,Capitão de Campos,-4457,-41944,PI
311270,3112703,Capitão Enéas,-16.3265,-43.7084,MG
220245,2202455,Capitão Gervásio Oliveira,-8.49655,-41814,PI
410460,4104600,Capitão Leônidas Marques,-25.4816,-53.6112,PR
150230,1502301,Capitão Poço,-1.74785,-47.0629,PA
311280,3112802,Capitólio,-20.6164,-46.0493,MG
351040,3510401,Capivari,-22.9951,-47.5071,SP
420395,4203956,Capivari de Baixo,-28.4498,-48.9631,SC
430467,4304671,Capivari do Sul,-30.1383,-50.5152,RS
120017,1200179,Capixaba,-10566,-67686,AC
260380,2603801,Capoeiras,-8.73423,-36.6306,PE
311290,3112901,Caputira,-20.1703,-42.2683,MG
430471,4304713,Caraá,-29.7869,-50.4316,RS
140020,1400209,Caracaraí,1.82766,-61.1304,RR
220250,2202505,Caracol,-9.27933,-43329,PI
500280,5002803,Caracol,-22011,-57.0277,MS
351050,3510500,Caraguatatuba,-23.6125,-45.4125,SP
311300,3113008,Caraí,-17.1862,-41.7004,MG
290689,2906899,Caraíbas,-14.7177,-41.2603,BA
410465,4104659,Carambeí,-24.9152,-50.0986,PR
311310,3113107,Caranaíba,-20.8707,-43.7417,MG
311320,3113206,Carandaí,-20.9566,-43811,MG
311330,3113305,Carangola,-20.7343,-42.0313,MG
330093,3300936,Carapebus,-22.1821,-41663,RJ
351060,3510609,Carapicuíba,-23.5235,-46.8407,SP
311340,3113404,Caratinga,-19.7868,-42.1292,MG
130100,1301001,Carauari,-4.88161,-66.9086,AM
240230,2402303,Caraúbas,-5.78387,-37.5586,RN
250407,2504074,Caraúbas,-7.72049,-36492,PB
220253,2202539,Caraúbas do Piauí,-3.47525,-41.8425,PI
290690,2906907,Caravelas,-17.7268,-39.2597,BA
430470,4304705,Carazinho,-28.2958,-52.7933,RS
311350,3113503,Carbonita,-17.5255,-43.0137,MG
290700,2907004,Cardeal da Silva,-11.9472,-37.9469,BA
351070,3510708,Cardoso,-20.08,-49.9183,SP
330115,3301157,Cardoso Moreira,-21.4846,-41.6165,RJ
311360,3113602,Careaçu,-22.0424,-45696,MG
130110,1301100,Careiro,-3.76803,-60369,AM
130115,1301159,Careiro da Várzea,-3314,-59.5557,AM
320130,3201308,Cariacica,-20.2632,-40.4165,ES
230300,2303006,Caridade,-4.22514,-39.1912,CE
220255,2202554,Caridade do Piauí,-7.73435,-40.9848,PI
290710,2907103,Carinhanha,-14.2985,-43.7724,BA
280140,2801405,Carira,-10.3524,-37.7002,SE
230310,2303105,Cariré,-3.94858,-40476,CE
170386,1703867,Cariri do Tocantins,-11.8881,-49.1609,TO
230320,2303204,Caririaçu,-7.02808,-39.2828,CE
230330,2303303,Cariús,-6.52428,-39.4916,CE
510279,5102793,Carlinda,-9.94912,-55.8417,MT
410470,4104709,Carlópolis,-23.4269,-49.7235,PR
430480,4304804,Carlos Barbosa,-29.2969,-51.5028,RS
311370,3113701,Carlos Chagas,-17.6973,-40.7723,MG
430485,4304853,Carlos Gomes,-27.7167,-51.9121,RS
311380,3113800,Carmésia,-19.0877,-43.1382,MG
330120,3301207,Carmo,-21931,-42.6046,RJ
311390,3113909,Carmo da Cachoeira,-21.4633,-45.2201,MG
311400,3114006,Carmo da Mata,-20.5575,-44.8735,MG
311410,3114105,Carmo de Minas,-22.1204,-45.1307,MG
311420,3114204,Carmo do Cajuru,-20.1912,-44.7664,MG
311430,3114303,Carmo do Paranaíba,-18991,-46.3167,MG
311440,3114402,Carmo do Rio Claro,-20.9736,-46.1149,MG
520500,5205000,Carmo do Rio Verde,-15.3549,-49708,GO
170388,1703883,Carmolândia,-7.03262,-48.3978,TO
280150,2801504,Carmópolis,-10.6449,-36.9887,SE
311450,3114501,Carmópolis de Minas,-20.5396,-44.6336,MG
260390,2603900,Carnaíba,-7.79342,-37.7946,PE
240240,2402402,Carnaúba dos Dantas,-6.55015,-36.5868,RN
240250,2402501,Carnaubais,-5.34181,-36.8335,RN
230340,2303402,Carnaubal,-4.15985,-40.9413,CE
260392,2603926,Carnaubeira da Penha,-8.31799,-38.7512,PE
311455,3114550,Carneirinho,-19.6987,-50.6894,MG
270180,2701803,Carneiros,-9.48476,-37.3773,AL
140023,1400233,Caroebe,0.884203,-59.6959,RR
210280,2102804,Carolina,-7.33584,-47.4634,MA
260400,2604007,Carpina,-7.84566,-35.2514,PE
311460,3114600,Carrancas,-21.4898,-44.6446,MG
250410,2504108,Carrapateira,-7.03414,-38.3399,PB
170389,1703891,Carrasco Bonito,-5.31415,-48.0314,TO
260410,2604106,Caruaru,-8.28455,-35.9699,PE
210290,2102903,Carutapera,-1.19696,-46.0085,MA
311470,3114709,Carvalhópolis,-21.7735,-45.8421,MG
311480,3114808,Carvalhos,-22.0,-44.4632,MG
351080,3510807,Casa Branca,-21.7708,-47.0852,SP
311490,3114907,Casa Grande,-20.7925,-43.9343,MG
290720,2907202,Casa Nova,-9.16408,-40974,BA
430490,4304903,Casca,-28.5605,-51.9815,RS
311500,3115003,Cascalho Rico,-18.5772,-47.8716,MG
410480,4104808,Cascavel,-24.9573,-53459,PR
230350,2303501,Cascavel,-4.12967,-38.2412,CE
170390,1703909,Caseara,-9.27612,-49.9521,TO
430495,4304952,Caseiros,-28.2582,-51.6861,RS
330130,3301306,Casimiro de Abreu,-22.4812,-42.2066,RJ
260415,2604155,Casinhas,-7.74084,-35.7206,PE
250415,2504157,Casserengue,-6.77954,-35.8179,PB
311510,3115102,Cássia,-20.5831,-46.9201,MG
351090,3510906,Cássia dos Coqueiros,-21.2801,-47.1643,SP
500290,5002902,Cassilândia,-19.1179,-51.7313,MS
150240,1502400,Castanhal,-1.29797,-47.9167,PA
510285,5102850,Castanheira,-11.1251,-58.6081,MT
110090,1100908,Castanheiras,-11.4253,-61.9482,RO
520505,5205059,Castelândia,-18.0921,-50203,GO
320140,3201407,Castelo,-20.6033,-41.2031,ES
220260,2202604,Castelo do Piauí,-5.31869,-41.5499,PI
351100,3511003,Castilho,-20.8689,-51.4884,SP
410490,4104907,Castro,-24.7891,-50.0108,PR
290730,2907301,Castro Alves,-12.7579,-39.4248,BA
311530,3115300,Cataguases,-21.3924,-42.6896,MG
520510,5205109,Catalão,-18.1656,-47944,GO
351110,3511102,Catanduva,-21.1314,-48977,SP
410500,4105003,Catanduvas,-25.2044,-53.1548,PR
420400,4204004,Catanduvas,-27069,-51.6602,SC
230360,2303600,Catarina,-6.12291,-39.8736,CE
311535,3115359,Catas Altas,-20.0734,-43.4061,MG
311540,3115409,Catas Altas da Noruega,-20.6901,-43.4939,MG
260420,2604205,Catende,-8.67509,-35.7024,PE
351120,3511201,Catiguá,-21.0519,-49.0616,SP
250420,2504207,Catingueira,-7.12008,-37.6064,PB
290740,2907400,Catolândia,-12.31,-44.8648,BA
250430,2504306,Catolé do Rocha,-6.34062,-37747,PB
290750,2907509,Catu,-12.3513,-38.3791,BA
430500,4305009,Catuípe,-28.2554,-54.0132,RS
311545,3115458,Catuji,-17.3018,-41.5276,MG
230365,2303659,Catunda,-4.64336,-40.2,CE
520520,5205208,Caturaí,-16.4447,-49.4936,GO
290755,2907558,Caturama,-13.3239,-42.2904,BA
250435,2504355,Caturité,-7.41659,-36.0306,PB
311547,3115474,Catuti,-15.3616,-42.9627,MG
230370,2303709,Caucaia,-3.72797,-38.6619,CE
520530,5205307,Cavalcante,-13.7976,-47.4566,GO
311550,3115508,Caxambu,-21.9753,-44.9319,MG
420410,4204103,Caxambu do Sul,-27.1624,-52.8807,SC
210300,2103000,Caxias,-4.86505,-43.3617,MA
430510,4305108,Caxias do Sul,-29.1629,-51.1792,RS
220265,2202653,Caxingó,-3.41904,-41.8955,PI
240260,2402600,Ceará-Mirim,-5.64323,-35.4247,RN
210310,2103109,Cedral,-2.00027,-44.5281,MA
351130,3511300,Cedral,-20.9009,-49.2664,SP
230380,2303808,Cedro,-6.60034,-39.0609,CE
260430,2604304,Cedro,-7.71179,-39.2367,PE
280160,2801603,Cedro de São João,-10.2534,-36.8856,SE
311560,3115607,Cedro do Abaeté,-19.1458,-45712,MG
420415,4204152,Celso Ramos,-27.6327,-51335,SC
430511,4305116,Centenário,-27.7615,-51.9984,RS
170410,1704105,Centenário,-8.96103,-47.3304,TO
410510,4105102,Centenário do Sul,-22.8188,-51.5973,PR
290760,2907608,Central,-11.1376,-42.1116,BA
311570,3115706,Central de Minas,-18.7612,-41.3143,MG
210312,2103125,Central do Maranhão,-2.19831,-44.8254,MA
311580,3115805,Centralina,-18.5852,-49.2014,MG
210315,2103158,Centro do Guilherme,-2.44891,-46.0345,MA
210317,2103174,Centro Novo do Maranhão,-2.12696,-46.1228,MA
110005,1100056,Cerejeiras,-13187,-60.8168,RO
520540,5205406,Ceres,-15.3061,-49.6,GO
351140,3511409,Cerqueira César,-23038,-49.1655,SP
351150,3511508,Cerquilho,-23.1665,-47.7459,SP
430512,4305124,Cerrito,-31.8419,-52.8004,RS
410520,4105201,Cerro Azul,-26.0891,-52.8691,PR
430513,4305132,Cerro Branco,-29657,-52.9406,RS
240270,2402709,Cerro Corá,-6.03503,-36.3503,RN
430515,4305157,Cerro Grande,-27.6106,-53.1672,RS
430517,4305173,Cerro Grande do Sul,-30.5905,-51.7418,RS
430520,4305207,Cerro Largo,-28.1463,-54.7428,RS
420417,4204178,Cerro Negro,-27.7942,-50.8673,SC
351160,3511607,Cesário Lange,-23226,-47.9545,SP
410530,4105300,Céu Azul,-25.1489,-53.8415,PR
520545,5205455,Cezarina,-16.9718,-49.7758,GO
260440,2604403,Chã de Alegria,-8.00679,-35204,PE
260450,2604502,Chã Grande,-8.23827,-35.4571,PE
270190,2701902,Chã Preta,-9.2556,-36.2983,AL
311590,3115904,Chácara,-21.6733,-43215,MG
311600,3116001,Chalé,-20.0453,-41.6897,MG
430530,4305306,Chapada,-28.0559,-53.0665,RS
170510,1705102,Chapada da Natividade,-11.6175,-47.7486,TO
170460,1704600,Chapada de Areia,-10.1419,-49.1403,TO
311610,3116100,Chapada do Norte,-17.0881,-42.5392,MG
510300,5103007,Chapada dos Guimarães,-15.4643,-55.7499,MT
311615,3116159,Chapada Gaúcha,-15.3014,-45.6116,MG
520547,5205471,Chapadão do Céu,-18.4073,-52549,GO
420419,4204194,Chapadão do Lageado,-27.5905,-49.5539,SC
500295,5002951,Chapadão do Sul,-18788,-52.6263,MS
210320,2103208,Chapadinha,-3.73875,-43.3538,MA
420420,4204202,Chapecó,-27.1004,-52.6152,SC
351170,3511706,Charqueada,-22.5096,-47.7755,SP
430535,4305355,Charqueadas,-29.9625,-51.6289,RS
430537,4305371,Charrua,-27.9493,-52015,RS
230390,2303907,Chaval,-3.03571,-41.2435,CE
355720,3557204,Chavantes,-23.0366,-49.7096,SP
150250,1502509,Chaves,-0.164154,-49987,PA
311620,3116209,Chiador,-21.9996,-43.0617,MG
430540,4305405,Chiapetta,-27923,-53.9419,RS
410540,4105409,Chopinzinho,-25.8515,-52.5173,PR
230393,2303931,Choró,-4.83906,-39.1344,CE
230395,2303956,Chorozinho,-4.28873,-38.4986,CE
290770,2907707,Chorrochó,-8.9695,-39.0979,BA
430543,4305439,Chuí,-33.6866,-53.4594,RS
110092,1100924,Chupinguaia,-12.5611,-60.8877,RO
430544,4305447,Chuvisca,-30.7504,-51.9737,RS
410550,4105508,Cianorte,-23.6599,-52.6054,PR
290780,2907806,Cícero Dantas,-10.5897,-38.3794,BA
410560,4105607,Cidade Gaúcha,-23.3772,-52.9436,PR
520549,5205497,Cidade Ocidental,-16.0765,-47.9252,GO
210325,2103257,Cidelândia,-5.17465,-47.7781,MA
430545,4305454,Cidreira,-30.1604,-50.2337,RS
290790,2907905,Cipó,-11.1032,-38.5179,BA
311630,3116308,Cipotânea,-20.9026,-43.3629,MG
430550,4305504,Ciríaco,-28.3419,-51.8741,RS
311640,3116407,Claraval,-20397,-47.2768,MG
311650,3116506,Claro dos Poções,-17082,-44.2061,MG
510305,5103056,Cláudia,-11.5075,-54.8835,MT
311660,3116605,Cláudio,-20.4437,-44.7673,MG
351190,3511904,Clementina,-21.5604,-50.4525,SP
410570,4105706,Clevelândia,-26.4043,-52.3508,PR
290800,2908002,Coaraci,-14637,-39.5556,BA
130120,1301209,Coari,-4.09412,-63.1441,AM
220270,2202703,Cocal,-3.47279,-41.5546,PI
220271,2202711,Cocal de Telha,-4.5571,-41.9587,PI
420425,4204251,Cocal do Sul,-28.5986,-49.3335,SC
220272,2202729,Cocal dos Alves,-3.62047,-41.4402,PI
510310,5103106,Cocalinho,-14.3903,-51.0001,MT
520551,5205513,Cocalzinho de Goiás,-15.7914,-48.7747,GO
290810,2908101,Cocos,-14.1814,-44.5352,BA
130130,1301308,Codajás,-3.83053,-62.0658,AM
210330,2103307,Codó,-4.45562,-43.8924,MA
210340,2103406,Coelho Neto,-4.25245,-43.0108,MA
311670,3116704,Coimbra,-20.8535,-42.8008,MG
270200,2702009,Coité do Nóia,-9.63348,-36.5845,AL
220273,2202737,Coivaras,-5.09224,-42208,PI
150260,1502608,Colares,-0.936423,-48.2803,PA
320150,3201506,Colatina,-19.5493,-40.6269,ES
510320,5103205,Colíder,-10.8135,-55461,MT
351200,3512001,Colina,-20.7114,-48.5387,SP
430558,4305587,Colinas,-29.3948,-51.8556,RS
210350,2103505,Colinas,-6.03199,-44.2543,MA
520552,5205521,Colinas do Sul,-14.1528,-48076,GO
170550,1705508,Colinas do Tocantins,-8.05764,-48.4757,TO
171670,1716703,Colméia,-8.72463,-48.7638,TO
510325,5103254,Colniza,-9.46121,-59.2252,MT
351210,3512100,Colômbia,-20.1768,-48.6865,SP
410580,4105805,Colombo,-25.2925,-49.2262,PR
220275,2202752,Colônia do Gurguéia,-8.1837,-43794,PI
220277,2202778,Colônia do Piauí,-7.22651,-42.1756,PI
270210,2702108,Colônia Leopoldina,-8.91806,-35.7214,AL
430560,4305603,Colorado,-28.5258,-52.9928,RS
410590,4105904,Colorado,-22.8374,-51.9743,PR
110006,1100064,Colorado do Oeste,-13.1174,-60.5454,RO
311680,3116803,Coluna,-18.2311,-42.8352,MG
170555,1705557,Combinado,-12.7917,-46.5388,TO
311690,3116902,Comendador Gomes,-19.6973,-49.0789,MG
330095,3300951,Comendador Levy Gasparian,-22.0404,-43214,RJ
311700,3117009,Comercinho,-16.2963,-41.7945,MG
510330,5103304,Comodoro,-13.6614,-59.7848,MT
250440,2504405,Conceição,-7.55106,-38.5014,PB
311710,3117108,Conceição da Aparecida,-21096,-46.2049,MG
320160,3201605,Conceição da Barra,-18.5883,-39.7362,ES
311520,3115201,Conceição da Barra de Minas,-21.1316,-44.4729,MG
290820,2908200,Conceição da Feira,-12.5078,-38.9978,BA
311730,3117306,Conceição das Alagoas,-19.9172,-48.3839,MG
311720,3117207,Conceição das Pedras,-22.1576,-45.4562,MG
311740,3117405,Conceição de Ipanema,-19.9326,-41.6908,MG
330140,3301405,Conceição de Macabu,-22.0834,-41.8719,RJ
290830,2908309,Conceição do Almeida,-12.7836,-39.1715,BA
150270,1502707,Conceição do Araguaia,-8.26136,-49.2689,PA
220280,2202802,Conceição do Canindé,-7.87638,-41.5942,PI
320170,3201704,Conceição do Castelo,-20.3639,-41.2417,ES
290840,2908408,Conceição do Coité,-11.56,-39.2808,BA
290850,2908507,Conceição do Jacuípe,-12.3268,-38.7684,BA
210355,2103554,Conceição do Lago-Açu,-3.85142,-44.8895,MA
311750,3117504,Conceição do Mato Dentro,-19.0344,-43.4221,MG
311760,3117603,Conceição do Pará,-19.7456,-44.8945,MG
311770,3117702,Conceição do Rio Verde,-21.8778,-45087,MG
170560,1705607,Conceição do Tocantins,-12.2209,-47.2951,TO
311780,3117801,Conceição dos Ouros,-22.4078,-45.7996,MG
351220,3512209,Conchal,-22.3375,-47.1729,SP
351230,3512308,Conchas,-23.0154,-48.0134,SP
420430,4204301,Concórdia,-27.2335,-52026,SC
150275,1502756,Concórdia do Pará,-1.99238,-47.9422,PA
250450,2504504,Condado,-6.89831,-37606,PB
260460,2604601,Condado,-7.58787,-35.0999,PE
250460,2504603,Conde,-7.25746,-34.8999,PB
290860,2908606,Conde,-11.8179,-37.6131,BA
290870,2908705,Condeúba,-14.9022,-41.9718,BA
430570,4305702,Condor,-28.2075,-53.4905,RS
311783,3117836,Cônego Marinho,-15.2892,-44.4181,MG
311787,3117876,Confins,-19.6282,-43.9931,MG
510335,5103353,Confresa,-10.6437,-51.5699,MT
250470,2504702,Congo,-7.79078,-36.6581,PB
311790,3117900,Congonhal,-22.1488,-46043,MG
311800,3118007,Congonhas,-20.4958,-43851,MG
311810,3118106,Congonhas do Norte,-18.8021,-43.6767,MG
410600,4106001,Congonhinhas,-23.5493,-50.5569,PR
311820,3118205,Conquista,-19.9312,-47.5492,MG
510336,5103361,Conquista D'Oeste,-14.5381,-59.5444,MT
311830,3118304,Conselheiro Lafaiete,-20.6634,-43.7846,MG
410610,4106100,Conselheiro Mairinck,-23623,-50.1707,PR
311840,3118403,Conselheiro Pena,-19.1789,-41.4736,MG
311850,3118502,Consolação,-22.5493,-45.9255,MG
430580,4305801,Constantina,-27732,-52.9938,RS
311860,3118601,Contagem,-19.9321,-44.0539,MG
410620,4106209,Contenda,-25.6788,-49535,PR
290880,2908804,Contendas do Sincorá,-13.7537,-41048,BA
311870,3118700,Coqueiral,-21.1858,-45.4366,MG
430583,4305835,Coqueiro Baixo,-29.1802,-52.0942,RS
270220,2702207,Coqueiro Seco,-9.63715,-35.7994,AL
430585,4305850,Coqueiros do Sul,-28.1194,-52.7842,RS
311880,3118809,Coração de Jesus,-16.6841,-44.3635,MG
290890,2908903,Coração de Maria,-12.2333,-38.7487,BA
410630,4106308,Corbélia,-24.7971,-53.3006,PR
330150,3301504,Cordeiro,-22.0267,-42.3648,RJ
351240,3512407,Cordeirópolis,-22.4778,-47.4519,SP
290900,2909000,Cordeiros,-15.0356,-41.9308,BA
420435,4204350,Cordilheira Alta,-26.9844,-52.6056,SC
311890,3118908,Cordisburgo,-19.1224,-44.3224,MG
311900,3119005,Cordislândia,-21.7891,-45.6999,MG
230400,2304004,Coreaú,-3.5415,-40.6587,CE
250480,2504801,Coremas,-7.00712,-37.9346,PB
500310,5003108,Corguinho,-19.8243,-54.8281,MS
290910,2909109,Coribe,-13.8232,-44.4586,BA
311910,3119104,Corinto,-18369,-44.4542,MG
410640,4106407,Cornélio Procópio,-23.1829,-50.6498,PR
311920,3119203,Coroaci,-18.6156,-42.2791,MG
351250,3512506,Coroados,-21.3521,-50.2859,SP
210360,2103604,Coroatá,-4.13442,-44.1244,MA
311930,3119302,Coromandel,-18.4734,-47.1933,MG
430587,4305871,Coronel Barros,-28.3921,-54.0686,RS
430590,4305900,Coronel Bicaco,-27.7197,-53.7022,RS
410645,4106456,Coronel Domingos Soares,-26.2277,-52.0356,PR
240280,2402808,Coronel Ezequiel,-6.3748,-36.2223,RN
311940,3119401,Coronel Fabriciano,-19.5179,-42.6276,MG
420440,4204400,Coronel Freitas,-26.9057,-52.7011,SC
240290,2402907,Coronel João Pessoa,-6.24974,-38.4441,RN
290920,2909208,Coronel João Sá,-10.2847,-37.9198,BA
220285,2202851,Coronel José Dias,-8.81397,-42.5232,PI
351260,3512605,Coronel Macedo,-23.6261,-49.31,SP
420445,4204459,Coronel Martins,-26511,-52.6694,SC
311950,3119500,Coronel Murta,-16.6148,-42184,MG
311960,3119609,Coronel Pacheco,-21.5898,-43256,MG
430593,4305934,Coronel Pilar,-29.2695,-51.6847,RS
500315,5003157,Coronel Sapucaia,-23.2724,-55.5278,MS
410650,4106506,Coronel Vivida,-25.9767,-52.5641,PR
311970,3119708,Coronel Xavier Chaves,-21.0277,-44.2206,MG
311980,3119807,Córrego Danta,-19.8198,-45.9032,MG
311990,3119906,Córrego do Bom Jesus,-22.6269,-46.0241,MG
520570,5205703,Córrego do Ouro,-16.2918,-50.5503,GO
311995,3119955,Córrego Fundo,-20.4474,-45.5617,MG
312000,3120003,Córrego Novo,-19.8361,-42.3988,MG
420455,4204558,Correia Pinto,-27.5877,-50.3614,SC
220290,2202901,Corrente,-10.4333,-45.1633,PI
260470,2604700,Correntes,-9.12117,-36.3244,PE
290930,2909307,Correntina,-13.3477,-44.6333,BA
260480,2604809,Cortês,-8.47443,-35.5468,PE
500320,5003207,Corumbá,-19.0077,-57651,MS
520580,5205802,Corumbá de Goiás,-15.9245,-48.8117,GO
520590,5205901,Corumbaíba,-18.1415,-48.5626,GO
351270,3512704,Corumbataí,-22.2213,-47.6215,SP
410655,4106555,Corumbataí do Sul,-24101,-52.1177,PR
110007,1100072,Corumbiara,-12.9551,-60.8947,RO
420450,4204509,Corupá,-26.4246,-49246,SC
270230,2702306,Coruripe,-10.1276,-36.1717,AL
351280,3512803,Cosmópolis,-22.6419,-47.1926,SP
351290,3512902,Cosmorama,-20.4755,-49.7827,SP
110008,1100080,Costa Marques,-12.4367,-64228,RO
500325,5003256,Costa Rica,-18.5432,-53.1287,MS
290940,2909406,Cotegipe,-12.0228,-44.2566,BA
351300,3513009,Cotia,-23.6022,-46919,SP
430595,4305959,Cotiporã,-28.9891,-51.6971,RS
510337,5103379,Cotriguaçu,-9.85656,-58.4192,MT
312010,3120102,Couto de Magalhães de Minas,-18.0727,-43.4648,MG
170600,1706001,Couto Magalhães,-8.28411,-49.2473,TO
430597,4305975,Coxilha,-28128,-52.3023,RS
500330,5003306,Coxim,-18.5013,-54751,MS
250485,2504850,Coxixola,-7.62365,-36.6064,PB
270235,2702355,Craíbas,-9.6178,-36.7697,AL
230410,2304103,Crateús,-5.16768,-40.6536,CE
230420,2304202,Crato,-7.2153,-39.4103,CE
351310,3513108,Cravinhos,-21338,-47.7324,SP
290950,2909505,Cravolândia,-13.3531,-39.8031,BA
420460,4204608,Criciúma,-28.6723,-49.3729,SC
312015,3120151,Crisólita,-17.2381,-40.9184,MG
290960,2909604,Crisópolis,-11.5059,-38.1515,BA
430600,4306007,Crissiumal,-27.4999,-54.0994,RS
312020,3120201,Cristais,-20.8733,-45.5167,MG
351320,3513207,Cristais Paulista,-20.4036,-47.4209,SP
430605,4306056,Cristal,-31.0046,-52.0436,RS
430607,4306072,Cristal do Sul,-27452,-53.2422,RS
170610,1706100,Cristalândia,-10.5985,-49.1942,TO
220300,2203008,Cristalândia do Piauí,-10.6443,-45.1893,PI
312030,3120300,Cristália,-16716,-42.8571,MG
520620,5206206,Cristalina,-16.7676,-47.6131,GO
312040,3120409,Cristiano Otoni,-20.8324,-43.8166,MG
520630,5206305,Cristianópolis,-17.1987,-48.7034,GO
312050,3120508,Cristina,-22208,-45.2673,MG
280170,2801702,Cristinápolis,-11.4668,-37.7585,SE
220310,2203107,Cristino Castro,-8.82273,-44223,PI
290970,2909703,Cristópolis,-12.2249,-44.4214,BA
520640,5206404,Crixás,-14.5412,-49974,GO
170625,1706258,Crixás do Tocantins,-11.0994,-48.9152,TO
230423,2304236,Croatá,-4.40481,-40.9022,CE
520650,5206503,Cromínia,-17.2883,-49.3798,GO
312060,3120607,Crucilândia,-20.3923,-44.3334,MG
230425,2304251,Cruz,-2.91813,-40176,CE
430610,4306106,Cruz Alta,-28645,-53.6048,RS
290980,2909802,Cruz das Almas,-12.6675,-39.1008,BA
250490,2504900,Cruz do Espírito Santo,-7.13902,-35.0857,PB
410680,4106803,Cruz Machado,-26.0166,-51343,PR
351330,3513306,Cruzália,-22.7373,-50.7909,SP
430613,4306130,Cruzaltense,-27.6672,-52.6522,RS
351340,3513405,Cruzeiro,-22.5728,-44969,SP
312070,3120706,Cruzeiro da Fortaleza,-18944,-46.6669,MG
410657,4106571,Cruzeiro do Iguaçu,-25.6192,-53.1285,PR
410660,4106605,Cruzeiro do Oeste,-23.7799,-53.0774,PR
410670,4106704,Cruzeiro do Sul,-22.9624,-52.1622,PR
430620,4306205,Cruzeiro do Sul,-29.5148,-51.9928,RS
120020,1200203,Cruzeiro do Sul,-7.62762,-72.6756,AC
240300,2403004,Cruzeta,-6.40894,-36.7782,RN
312080,3120805,Cruzília,-21.84,-44.8067,MG
410685,4106852,Cruzmaltina,-24.0132,-51.4563,PR
351350,3513504,Cubatão,-23.8911,-46424,SP
250500,2505006,Cubati,-6.86686,-36.3619,PB
510340,5103403,Cuiabá,-15601,-56.0974,MT
250510,2505105,Cuité,-6.47647,-36.1515,PB
250523,2505238,Cuité de Mamanguape,-6.91292,-35.2502,PB
250520,2505204,Cuitegi,-6.89058,-35.5215,PB
110094,1100940,Cujubim,-9.36065,-62.5846,RO
520660,5206602,Cumari,-18.2644,-48.1511,GO
260490,2604908,Cumaru,-8.00827,-35.6957,PE
150276,1502764,Cumaru do Norte,-7.81097,-50.7698,PA
280190,2801900,Cumbe,-10352,-37.1846,SE
351360,3513603,Cunha,-23.0731,-44.9576,SP
420470,4204707,Cunha Porã,-26895,-53.1662,SC
420475,4204756,Cunhataí,-26.9709,-53.0895,SC
312083,3120839,Cuparaque,-18.9648,-41.0986,MG
260500,2605004,Cupira,-8.62432,-35.9518,PE
290990,2909901,Curaçá,-8.98458,-39.8997,BA
220320,2203206,Curimatá,-10.0326,-44.3002,PI
150277,1502772,Curionópolis,-6.09965,-49.6068,PA
410690,4106902,Curitiba,-25.4195,-49.2646,PR
420480,4204806,Curitibanos,-27.2824,-50.5816,SC
410700,4107009,Curiúva,-24.0362,-50.4576,PR
220323,2203230,Currais,-9.01175,-44.4062,PI
240310,2403103,Currais Novos,-6.25484,-36.5146,RN
250527,2505279,Curral de Cima,-6.72325,-35.2639,PB
312087,3120870,Curral de Dentro,-15.9327,-41.8557,MG
220327,2203271,Curral Novo do Piauí,-7.8313,-40.8957,PI
250530,2505303,Curral Velho,-7.53075,-38.1962,PB
150280,1502806,Curralinho,-1.81179,-49.7952,PA
220325,2203255,Curralinhos,-5.60825,-42.8376,PI
150285,1502855,Curuá,-1.88775,-55.1168,PA
150290,1502905,Curuçá,-0.733214,-47.8515,PA
210370,2103703,Cururupu,-1.81475,-44.8644,MA
510343,5103437,Curvelândia,-15.6084,-57.9133,MT
312090,3120904,Curvelo,-18.7527,-44.4303,MG
260510,2605103,Custódia,-8.08546,-37.6443,PE
160021,1600212,Cutias,0.970761,-50.8005,AP
520670,5206701,Damianópolis,-14.5604,-46178,GO
250535,2505352,Damião,-6.63161,-35.9101,PB
520680,5206800,Damolândia,-16.2544,-49.3631,GO
170650,1706506,Darcinópolis,-6.71591,-47.7597,TO
291000,2910008,Dário Meira,-14.4229,-39.9031,BA
312100,3121001,Datas,-18.4478,-43.6591,MG
430630,4306304,David Canabarro,-28.3849,-51.8482,RS
210375,2103752,Davinópolis,-5.54637,-47.4217,MA
520690,5206909,Davinópolis,-18.1501,-47.5568,GO
312110,3121100,Delfim Moreira,-22.5036,-45.2792,MG
312120,3121209,Delfinópolis,-20.3468,-46.8456,MG
270240,2702405,Delmiro Gouveia,-9.38534,-37.9987,AL
312125,3121258,Delta,-19.9721,-47.7841,MG
220330,2203305,Demerval Lobão,-5.35875,-42.6776,PI
510345,5103452,Denise,-14.7324,-57.0583,MT
500345,5003454,Deodápolis,-22.2763,-54.1682,MS
230426,2304269,Deputado Irapuan Pinheiro,-5.91485,-39257,CE
430632,4306320,Derrubadas,-27.2642,-53.8645,RS
351370,3513702,Descalvado,-21.9002,-47.6181,SP
420490,4204905,Descanso,-26827,-53.5034,SC
312130,3121308,Descoberto,-21.46,-42.9618,MG
250540,2505402,Desterro,-7287,-37.0925,PB
312140,3121407,Desterro de Entre Rios,-20665,-44.3334,MG
312150,3121506,Desterro do Melo,-21143,-43.5178,MG
430635,4306353,Dezesseis de Novembro,-28219,-55.0617,RS
351380,3513801,Diadema,-23.6813,-46.6205,SP
250560,2505600,Diamante,-7.41738,-38.2615,PB
410715,4107157,Diamante D'Oeste,-24.9419,-54.1052,PR
410710,4107108,Diamante do Norte,-22655,-52.8617,PR
410712,4107124,Diamante do Sul,-25035,-52.6768,PR
312160,3121605,Diamantina,-18.2413,-43.6031,MG
510350,5103502,Diamantino,-14.4037,-56.4366,MT
170700,1707009,Dianópolis,-11624,-46.8198,TO
291005,2910057,Dias d'Ávila,-12.6187,-38.2926,BA
430637,4306379,Dilermando de Aguiar,-29.7054,-54.2122,RS
312170,3121704,Diogo de Vasconcelos,-20.4879,-43.1953,MG
312180,3121803,Dionísio,-19.8433,-42.7701,MG
420500,4205001,Dionísio Cerqueira,-26.2648,-53.6351,SC
520710,5207105,Diorama,-16.2329,-51.2543,GO
351385,3513850,Dirce Reis,-20.4642,-50.6073,SP
220335,2203354,Dirceu Arcoverde,-9.33939,-42.4348,PI
280200,2802007,Divina Pastora,-10.6782,-37.1506,SE
312190,3121902,Divinésia,-20.9917,-43.0003,MG
312200,3122009,Divino,-20.6134,-42.1438,MG
312210,3122108,Divino das Laranjeiras,-18.7755,-41.4781,MG
320180,3201803,Divino de São Lourenço,-20.6229,-41.6937,ES
351390,3513900,Divinolândia,-21.6637,-46.7361,SP
312220,3122207,Divinolândia de Minas,-18.8004,-42.6103,MG
312230,3122306,Divinópolis,-20.1446,-44.8912,MG
520830,5208301,Divinópolis de Goiás,-13.2853,-46.3999,GO
170710,1707108,Divinópolis do Tocantins,-9.80018,-49.2169,TO
312235,3122355,Divisa Alegre,-15.7221,-41.3463,MG
312240,3122405,Divisa Nova,-21.5092,-46.1904,MG
312245,3122454,Divisópolis,-15.7254,-40.9997,MG
351400,3514007,Dobrada,-21.5155,-48.3935,SP
351410,3514106,Dois Córregos,-22.3673,-48.3819,SP
430640,4306403,Dois Irmãos,-29.5836,-51.0898,RS
430642,4306429,Dois Irmãos das Missões,-27.6621,-53.5304,RS
500348,5003488,Dois Irmãos do Buriti,-20.6848,-55.2915,MS
170720,1707207,Dois Irmãos do Tocantins,-9.25534,-49.0638,TO
430645,4306452,Dois Lajeados,-28983,-51.8396,RS
270250,2702504,Dois Riachos,-9.38465,-37.0965,AL
410720,4107207,Dois Vizinhos,-25.7407,-53057,PR
351420,3514205,Dolcinópolis,-20124,-50.5149,SP
510360,5103601,Dom Aquino,-15.8099,-54.9223,MT
291010,2910107,Dom Basílio,-13.7565,-41.7677,BA
312247,3122470,Dom Bosco,-16652,-46.2597,MG
312250,3122504,Dom Cavati,-19.3735,-42.1121,MG
150293,1502939,Dom Eliseu,-4.19944,-47.8245,PA
220340,2203404,Dom Expedito Lopes,-6.95332,-41.6396,PI
430650,4306502,Dom Feliciano,-30.7004,-52.1026,RS
220345,2203453,Dom Inocêncio,-9.00516,-41.9697,PI
312260,3122603,Dom Joaquim,-18961,-43.2544,MG
291020,2910206,Dom Macedo Costa,-12.9016,-39.1923,BA
430660,4306601,Dom Pedrito,-30.9756,-54.6694,RS
210380,2103802,Dom Pedro,-5.03518,-44.4409,MA
430655,4306551,Dom Pedro de Alcântara,-29.3639,-49853,RS
312270,3122702,Dom Silvério,-20.1627,-42.9627,MG
312280,3122801,Dom Viçoso,-22.2511,-45.1643,MG
320190,3201902,Domingos Martins,-20.3603,-40.6594,ES
220342,2203420,Domingos Mourão,-4.2495,-41.2683,PI
420510,4205100,Dona Emma,-26981,-49.7261,SC
312290,3122900,Dona Eusébia,-21319,-42807,MG
430670,4306700,Dona Francisca,-29.6195,-53.3617,RS
250570,2505709,Dona Inês,-6.61566,-35.6205,PB
312300,3123007,Dores de Campos,-21.1139,-44.0207,MG
312310,3123106,Dores de Guanhães,-19.0516,-42.9254,MG
312320,3123205,Dores do Indaiá,-19.4628,-45.5927,MG
320200,3202009,Dores do Rio Preto,-20.6931,-41.8405,ES
312330,3123304,Dores do Turvo,-20.9785,-43.1834,MG
312340,3123403,Doresópolis,-20.2868,-45.9007,MG
260515,2605152,Dormentes,-8.44116,-40.7662,PE
500350,5003504,Douradina,-22.0405,-54.6158,MS
410725,4107256,Douradina,-23.3807,-53.2918,PR
351430,3514304,Dourado,-22.1044,-48.3178,SP
312350,3123502,Douradoquara,-18.4338,-47.5993,MG
500370,5003702,Dourados,-22.2231,-54812,MS
410730,4107306,Doutor Camargo,-23.5582,-52.2178,PR
430673,4306734,Doutor Maurício Cardoso,-27.5103,-54.3577,RS
420515,4205159,Doutor Pedrinho,-26.7174,-49.4795,SC
430675,4306759,Doutor Ricardo,-29084,-51.9972,RS
240320,2403202,Doutor Severiano,-6.08082,-38.3794,RN
412863,4128633,Doutor Ulysses,-24.5665,-49.4219,PR
520725,5207253,Doverlândia,-16.7188,-52.3189,GO
351440,3514403,Dracena,-21.4843,-51535,SP
351450,3514502,Duartina,-22.4146,-49.4084,SP
330160,3301603,Duas Barras,-22.0536,-42.5232,RJ
250580,2505808,Duas Estradas,-6.68499,-35418,PB
170730,1707306,Dueré,-11.3416,-49.2716,TO
351460,3514601,Dumont,-21.2324,-47.9756,SP
210390,2103901,Duque Bacelar,-4.15002,-42.9477,MA
330170,3301702,Duque de Caxias,-22.7858,-43.3049,RJ
312352,3123528,Durandé,-20.2058,-41.7977,MG
351470,3514700,Echaporã,-22.4326,-50.2038,SP
320210,3202108,Ecoporanga,-18.3702,-40836,ES
520735,5207352,Edealina,-17.4239,-49.6644,GO
520740,5207402,Edéia,-17.3406,-49.9295,GO
130140,1301407,Eirunepé,-6.65677,-69.8662,AM
500375,5003751,Eldorado,-23.7868,-54.2838,MS
351480,3514809,Eldorado,-24.5281,-48.1141,SP
150295,1502954,Eldorado do Carajás,-6.10389,-49.3553,PA
430676,4306767,Eldorado do Sul,-30.0847,-51.6187,RS
220350,2203503,Elesbão Veloso,-6.19947,-42.1355,PI
351490,3514908,Elias Fausto,-23.0428,-47.3682,SP
220360,2203602,Eliseu Martins,-8.09629,-43.6705,PI
351492,3514924,Elisiário,-21.1678,-49.1146,SP
291030,2910305,Elísio Medrado,-12.9417,-39.5191,BA
312360,3123601,Elói Mendes,-21.6088,-45.5691,MG
250590,2505907,Emas,-7.09964,-37.7163,PB
351495,3514957,Embaúba,-20.9796,-48.8325,SP
351500,3515004,Embu das Artes,-23.6437,-46.8579,SP
351510,3515103,Embu-Guaçu,-23.8297,-46.8136,SP
351512,3515129,Emilianópolis,-21.8314,-51.4832,SP
430680,4306809,Encantado,-29.2351,-51.8703,RS
240330,2403301,Encanto,-6.10691,-38.3033,RN
291040,2910404,Encruzilhada,-15.5302,-40.9124,BA
430690,4306908,Encruzilhada do Sul,-30543,-52.5204,RS
410740,4107405,Enéas Marques,-25.9445,-53.1659,PR
410750,4107504,Engenheiro Beltrão,-23797,-52.2659,PR
312370,3123700,Engenheiro Caldas,-19.2065,-42.0503,MG
351515,3515152,Engenheiro Coelho,-22.4836,-47211,SP
312380,3123809,Engenheiro Navarro,-17.2831,-43947,MG
330180,3301801,Engenheiro Paulo de Frontin,-22.5498,-43.6827,RJ
430692,4306924,Engenho Velho,-27706,-52.9145,RS
312385,3123858,Entre Folhas,-19.6218,-42.2306,MG
291050,2910503,Entre Rios,-11.9392,-38.0871,BA
420517,4205175,Entre Rios,-26.7225,-52.5585,SC
312390,3123908,Entre Rios de Minas,-20.6706,-44.0654,MG
410753,4107538,Entre Rios do Oeste,-24.7042,-54.2385,PR
430695,4306957,Entre Rios do Sul,-27.5298,-52.7347,RS
430693,4306932,Entre-Ijuís,-28.3686,-54.2686,RS
130150,1301506,Envira,-7.43789,-70.0281,AM
120025,1200252,Epitaciolândia,-11.0188,-68.7341,AC
240340,2403400,Equador,-6.93835,-36717,RN
430697,4306973,Erebango,-27.8544,-52.3005,RS
430700,4307005,Erechim,-27.6364,-52.2697,RS
230427,2304277,Ererê,-6.02751,-38.3461,CE
290050,2900504,Érico Cardoso,-13.4215,-42.1352,BA
420519,4205191,Ermo,-28.9869,-49643,SC
430705,4307054,Ernestina,-28.4977,-52.5836,RS
430720,4307203,Erval Grande,-27.3926,-52574,RS
430730,4307302,Erval Seco,-27.5443,-53.5005,RS
420520,4205209,Erval Velho,-27.2743,-51443,SC
312400,3124005,Ervália,-20.8403,-42.6544,MG
260520,2605202,Escada,-8.35672,-35.2241,PE
430740,4307401,Esmeralda,-28.0518,-51.1933,RS
312410,3124104,Esmeraldas,-19764,-44.3065,MG
312420,3124203,Espera Feliz,-20.6508,-41.9119,MG
250600,2506004,Esperança,-7.02278,-35.8597,PB
430745,4307450,Esperança do Sul,-27.3603,-53.9891,RS
410752,4107520,Esperança Nova,-23.7238,-53811,PR
170740,1707405,Esperantina,-5.36593,-48.5378,TO
220370,2203701,Esperantina,-3.88863,-42.2324,PI
210400,2104008,Esperantinópolis,-4.87938,-44.6926,MA
410754,4107546,Espigão Alto do Iguaçu,-25.4216,-52.8348,PR
110009,1100098,Espigão D'Oeste,-11.5266,-61.0252,RO
312430,3124302,Espinosa,-14.9249,-42809,MG
240350,2403509,Espírito Santo,-6.33563,-35.3052,RN
312440,3124401,Espírito Santo do Dourado,-22.0454,-45.9548,MG
351518,3515186,Espírito Santo do Pinhal,-22.1909,-46.7477,SP
351519,3515194,Espírito Santo do Turvo,-22.6925,-49.4341,SP
291060,2910602,Esplanada,-11.7942,-37.9432,BA
430750,4307500,Espumoso,-28.7286,-52.8461,RS
430755,4307559,Estação,-27.9135,-52.2635,RS
280210,2802106,Estância,-11.2659,-37.4484,SE
430760,4307609,Estância Velha,-29.6535,-51.1843,RS
430770,4307708,Esteio,-29852,-51.1841,RS
312450,3124500,Estiva,-22.4577,-46.0191,MG
355730,3557303,Estiva Gerbi,-22.2713,-46.9481,SP
210405,2104057,Estreito,-6.56077,-47.4431,MA
430780,4307807,Estrela,-29.5002,-51.9495,RS
351520,3515202,Estrela d'Oeste,-20.2875,-50.4049,SP
312460,3124609,Estrela Dalva,-21.7412,-42.4574,MG
270255,2702553,Estrela de Alagoas,-9.39089,-36.7644,AL
312470,3124708,Estrela do Indaiá,-19.5169,-45.7859,MG
520750,5207501,Estrela do Norte,-13.8665,-49.0716,GO
351530,3515301,Estrela do Norte,-22.4859,-51.6632,SP
312480,3124807,Estrela do Sul,-18.7399,-47.6956,MG
430781,4307815,Estrela Velha,-29.1713,-53.1639,RS
291070,2910701,Euclides da Cunha,-10.5078,-39.0153,BA
351535,3515350,Euclides da Cunha Paulista,-22.5545,-52.5928,SP
430783,4307831,Eugênio de Castro,-28.5315,-54.1506,RS
312490,3124906,Eugenópolis,-21.1002,-42.1878,MG
291072,2910727,Eunápolis,-16.3715,-39.5821,BA
230428,2304285,Eusébio,-3.8925,-38.4559,CE
312500,3125002,Ewbank da Câmara,-21.5498,-43.5068,MG
312510,3125101,Extrema,-22854,-46.3178,MG
240360,2403608,Extremoz,-5.70143,-35.3048,RN
260530,2605301,Exu,-7.50364,-39.7238,PE
250610,2506103,Fagundes,-7.34454,-35.7931,PB
430786,4307864,Fagundes Varela,-28.8794,-51.7014,RS
520753,5207535,Faina,-15.4473,-50.3622,GO
312520,3125200,Fama,-21.4089,-45.8286,MG
312530,3125309,Faria Lemos,-20.8097,-42.0213,MG
230430,2304301,Farias Brito,-6.92146,-39.5651,CE
150300,1503002,Faro,-2.16805,-56.7405,PA
410755,4107553,Farol,-24.0958,-52.6217,PR
430790,4307906,Farroupilha,-29.2227,-51.3419,RS
351540,3515400,Fartura,-23.3916,-49.5124,SP
220375,2203750,Fartura do Piauí,-9.48342,-42.7912,PI
170755,1707553,Fátima,-10.7603,-48.9076,TO
291075,2910750,Fátima,-10616,-38.2239,BA
500380,5003801,Fátima do Sul,-22.3789,-54.5131,MS
410760,4107603,Faxinal,-24.0077,-51.3227,PR
430800,4308003,Faxinal do Soturno,-29.5788,-53.4484,RS
420530,4205308,Faxinal dos Guedes,-26.8451,-52.2596,SC
430805,4308052,Faxinalzinho,-27.4238,-52.6789,RS
520760,5207600,Fazenda Nova,-16.1834,-50.7781,GO
410765,4107652,Fazenda Rio Grande,-25.6624,-49.3073,PR
430807,4308078,Fazenda Vilanova,-29.5885,-51.8217,RS
120030,1200302,Feijó,-8.17054,-70351,AC
291077,2910776,Feira da Mata,-14.2044,-44.2744,BA
291080,2910800,Feira de Santana,-12.2664,-38.9663,BA
270260,2702603,Feira Grande,-9.89859,-36.6815,AL
260540,2605400,Feira Nova,-7.94704,-35.3801,PE
280220,2802205,Feira Nova,-10.2616,-37.3147,SE
210407,2104073,Feira Nova do Maranhão,-6.96508,-46.6786,MA
312540,3125408,Felício dos Santos,-18.0755,-43.2422,MG
240370,2403707,Felipe Guerra,-5.59274,-37.6875,RN
312560,3125606,Felisburgo,-16.6348,-40.7605,MG
312570,3125705,Felixlândia,-18.7507,-44.9004,MG
430810,4308102,Feliz,-29.4527,-51.3032,RS
270270,2702702,Feliz Deserto,-10.2935,-36.3028,AL
510370,5103700,Feliz Natal,-12385,-54.9227,MT
410770,4107702,Fênix,-23.9135,-51.9805,PR
410773,4107736,Fernandes Pinheiro,-25.4107,-50.5456,PR
312580,3125804,Fernandes Tourinho,-19.1541,-42.0803,MG
260545,2605459,Fernando de Noronha,-3.8396,-32.4107,PE
210408,2104081,Fernando Falcão,-6.16207,-44.8979,MA
240375,2403756,Fernando Pedroza,-5.69096,-36.5282,RN
351560,3515608,Fernando Prestes,-21.2661,-48.6874,SP
351550,3515509,Fernandópolis,-20.2806,-50.2471,SP
351565,3515657,Fernão,-22.3607,-49.5187,SP
351570,3515707,Ferraz de Vasconcelos,-23.5411,-46371,SP
160023,1600238,Ferreira Gomes,0.857256,-51.1795,AP
260550,2605509,Ferreiros,-7.44666,-35.2373,PE
312590,3125903,Ferros,-19.2343,-43.0192,MG
312595,3125952,Fervedouro,-20726,-42279,MG
410775,4107751,Figueira,-23.8455,-50.4031,PR
500390,5003900,Figueirão,-18.6782,-53638,MS
170765,1707652,Figueirópolis,-12.1312,-49.1748,TO
510380,5103809,Figueirópolis D'Oeste,-15.4439,-58.7391,MT
170770,1707702,Filadélfia,-7.33501,-47.4954,TO
291085,2910859,Filadélfia,-10.7405,-40.1437,BA
291090,2910909,Firmino Alves,-14.9823,-39.9269,BA
520780,5207808,Firminópolis,-16.5778,-50304,GO
270280,2702801,Flexeiras,-9.27281,-35.7139,AL
410785,4107850,Flor da Serra do Sul,-26.2523,-53.3092,PR
420535,4205357,Flor do Sertão,-26.7811,-53.3505,SC
351580,3515806,Flora Rica,-21.6727,-51.3821,SP
410780,4107801,Floraí,-23.3178,-52.3029,PR
240380,2403806,Florânia,-6.12264,-36.8226,RN
351590,3515905,Floreal,-20.6752,-50.1513,SP
260560,2605608,Flores,-7.85842,-37.9715,PE
430820,4308201,Flores da Cunha,-29.0261,-51.1875,RS
520790,5207907,Flores de Goiás,-14.4451,-47.0417,GO
220380,2203800,Flores do Piauí,-7.78793,-42918,PI
410790,4107900,Floresta,-23.6031,-52.0807,PR
260570,2605707,Floresta,-8.60307,-38.5687,PE
291100,2911006,Floresta Azul,-14.8629,-39.6579,BA
150304,1503044,Floresta do Araguaia,-7.55335,-49.7125,PA
220385,2203859,Floresta do Piauí,-7.46682,-41.7883,PI
312600,3126000,Florestal,-19888,-44.4318,MG
410800,4108007,Florestópolis,-22.8623,-51.3882,PR
220390,2203909,Floriano,-6.77182,-43.0241,PI
430825,4308250,Floriano Peixoto,-27.8614,-52.0838,RS
420540,4205407,Florianópolis,-27.5945,-48.5477,SC
410810,4108106,Flórida,-23.0847,-51.9546,PR
351600,3516002,Flórida Paulista,-21.6127,-51.1724,SP
351610,3516101,Florínia,-22868,-50.6814,SP
130160,1301605,Fonte Boa,-2.52342,-66.0942,AM
430830,4308300,Fontoura Xavier,-28.9817,-52.3445,RS
312610,3126109,Formiga,-20.4618,-45.4268,MG
430840,4308409,Formigueiro,-30.0035,-53.4959,RS
520800,5208004,Formosa,-15.54,-47337,GO
210409,2104099,Formosa da Serra Negra,-6.44017,-46.1916,MA
410820,4108205,Formosa do Oeste,-24.2951,-53.3114,PR
291110,2911105,Formosa do Rio Preto,-11.0328,-45193,BA
420543,4205431,Formosa do Sul,-26.6453,-52.7946,SC
520810,5208103,Formoso,-13.6499,-48.8775,GO
312620,3126208,Formoso,-14.9446,-46.2371,MG
170820,1708205,Formoso do Araguaia,-11.7976,-49.5316,TO
430843,4308433,Forquetinha,-29.3828,-52.0981,RS
230435,2304350,Forquilha,-3.79945,-40.2634,CE
420545,4205456,Forquilhinha,-28.7454,-49.4785,SC
230440,2304400,Fortaleza,-3.71664,-38.5423,CE
312630,3126307,Fortaleza de Minas,-20.8508,-46712,MG
170825,1708254,Fortaleza do Tabocão,-9.05611,-48.5206,TO
210410,2104107,Fortaleza dos Nogueiras,-6.95983,-46.1749,MA
430845,4308458,Fortaleza dos Valos,-28.7986,-53.2249,RS
230445,2304459,Fortim,-4.45126,-37.7981,CE
210420,2104206,Fortuna,-5.72792,-44.1565,MA
312640,3126406,Fortuna de Minas,-19.5578,-44.4472,MG
410830,4108304,Foz do Iguaçu,-25.5427,-54.5827,PR
410845,4108452,Foz do Jordão,-25.7371,-52.1188,PR
420550,4205506,Fraiburgo,-27.0233,-50.92,SC
351620,3516200,Franca,-20.5352,-47.4039,SP
220400,2204006,Francinópolis,-6.39334,-42.2591,PI
410832,4108320,Francisco Alves,-24.0667,-53.8461,PR
220410,2204105,Francisco Ayres,-6.62606,-42.6881,PI
312650,3126505,Francisco Badaró,-16.9883,-42.3568,MG
410840,4108403,Francisco Beltrão,-26.0817,-53.0535,PR
240390,2403905,Francisco Dantas,-6.07234,-38.1212,RN
312660,3126604,Francisco Dumont,-17.3107,-44.2317,MG
220415,2204154,Francisco Macedo,-7331,-40788,PI
351630,3516309,Francisco Morato,-23.2792,-46.7448,SP
312670,3126703,Francisco Sá,-16.4827,-43.4896,MG
220420,2204204,Francisco Santos,-6.99491,-41.1288,PI
312675,3126752,Franciscópolis,-17.9578,-42.0094,MG
351640,3516408,Franco da Rocha,-23.3229,-46729,SP
230450,2304509,Frecheirinha,-3.75557,-40818,CE
430850,4308508,Frederico Westphalen,-27.3586,-53.3958,RS
312680,3126802,Frei Gaspar,-18.0709,-41.4325,MG
312690,3126901,Frei Inocêncio,-18.5556,-41.9121,MG
312695,3126950,Frei Lagonegro,-18.1751,-42.7617,MG
250620,2506202,Frei Martinho,-6.39759,-36.4526,PB
260580,2605806,Frei Miguelinho,-7.93918,-35.9113,PE
280230,2802304,Frei Paulo,-10.5513,-37.5279,SE
420555,4205555,Frei Rogério,-27175,-50.8076,SC
312700,3127008,Fronteira,-20.2748,-49.1984,MG
312705,3127057,Fronteira dos Vales,-16.8898,-40923,MG
220430,2204303,Fronteiras,-7.08173,-40.6146,PI
312707,3127073,Fruta de Leite,-16.1225,-42.5288,MG
312710,3127107,Frutal,-20.0259,-48.9355,MG
240400,2404002,Frutuoso Gomes,-6.15669,-37.8375,RN
320220,3202207,Fundão,-19937,-40.4078,ES
312720,3127206,Funilândia,-19.3661,-44061,MG
351650,3516507,Gabriel Monteiro,-21.5294,-50.5573,SP
250625,2506251,Gado Bravo,-7.58279,-35.7899,PB
351660,3516606,Gália,-22.2918,-49.5504,SP
312730,3127305,Galiléia,-19.0005,-41.5387,MG
240410,2404101,Galinhos,-5.0909,-36.2754,RN
420560,4205605,Galvão,-26.4549,-52.6875,SC
260590,2605905,Gameleira,-8.5798,-35.3846,PE
520815,5208152,Gameleira de Goiás,-16.4854,-48.6454,GO
312733,3127339,Gameleiras,-15.0829,-43125,MG
291120,2911204,Gandu,-13.7441,-39.4747,BA
260600,2606002,Garanhuns,-8.88243,-36.4966,PE
280240,2802403,Gararu,-9.9722,-37.0869,SE
351670,3516705,Garça,-22.2125,-49.6546,SP
430860,4308607,Garibaldi,-29259,-51.5352,RS
420570,4205704,Garopaba,-28.0275,-48.6192,SC
150307,1503077,Garrafão do Norte,-1.92986,-47.0505,PA
430865,4308656,Garruchos,-28.1944,-55.6383,RS
420580,4205803,Garuva,-26.0292,-48852,SC
420590,4205902,Gaspar,-26.9336,-48.9534,SC
351680,3516804,Gastão Vidigal,-20.7948,-50.1912,SP
510385,5103858,Gaúcha do Norte,-13.2443,-53.0809,MT
430870,4308706,Gaurama,-27.5856,-52.0915,RS
291125,2911253,Gavião,-11.4688,-39.7757,BA
351685,3516853,Gavião Peixoto,-21.8367,-48.4957,SP
220435,2204352,Geminiano,-7.15476,-41.3409,PI
430880,4308805,General Câmara,-29.9032,-51.7612,RS
510390,5103908,General Carneiro,-15.7094,-52.7574,MT
410850,4108502,General Carneiro,-26425,-51.3172,PR
280250,2802502,General Maynard,-10.6835,-36.9838,SE
351690,3516903,General Salgado,-20.6485,-50364,SP
230460,2304608,General Sampaio,-4.04351,-39454,CE
430885,4308854,Gentil,-28.4316,-52.0337,RS
291130,2911303,Gentio do Ouro,-11.4342,-42.5077,BA
351700,3517000,Getulina,-21.7961,-49.9312,SP
430890,4308904,Getúlio Vargas,-27.8911,-52.2294,RS
220440,2204402,Gilbués,-9.83001,-45.3423,PI
270290,2702900,Girau do Ponciano,-9.88404,-36.8316,AL
430900,4309001,Giruá,-28.0297,-54.3517,RS
312735,3127354,Glaucilândia,-16.8481,-43692,MG
351710,3517109,Glicério,-21.3812,-50.2123,SP
291140,2911402,Glória,-9.34382,-38.2544,BA
510395,5103957,Glória D'Oeste,-15768,-58.3108,MT
500400,5004007,Glória de Dourados,-22.4136,-54.2335,MS
260610,2606101,Glória do Goitá,-8.00568,-35.2904,PE
430905,4309050,Glorinha,-29.8798,-50.7734,RS
210430,2104305,Godofredo Viana,-1.40259,-45.7795,MA
410855,4108551,Godoy Moreira,-24173,-51.9246,PR
312737,3127370,Goiabeira,-18.9807,-41.2235,MG
312738,3127388,Goianá,-21536,-43.1957,MG
260620,2606200,Goiana,-7.5606,-34.9959,PE
520840,5208400,Goianápolis,-16.5098,-49.0234,GO
520850,5208509,Goiandira,-18.1352,-48.0875,GO
520860,5208608,Goianésia,-15.3118,-49.1162,GO
150309,1503093,Goianésia do Pará,-3.84338,-49.0974,PA
520870,5208707,Goiânia,-16.6864,-49.2643,GO
240420,2404200,Goianinha,-6.26486,-35.1943,RN
520880,5208806,Goianira,-16.4947,-49427,GO
170830,1708304,Goianorte,-8.77413,-48.9313,TO
520890,5208905,Goiás,-15.9333,-50.14,GO
170900,1709005,Goiatins,-7.71478,-47.3252,TO
520910,5209101,Goiatuba,-18.0105,-49.3658,GO
410860,4108601,Goioerê,-24.1835,-53.0248,PR
410865,4108650,Goioxim,-25.1927,-51.9911,PR
312740,3127404,Gonçalves,-22.6545,-45.8556,MG
210440,2104404,Gonçalves Dias,-5.1475,-44.3013,MA
291150,2911501,Gongogi,-14.3195,-39469,BA
312750,3127503,Gonzaga,-18.8196,-42.4769,MG
312760,3127602,Gouveia,-18.4519,-43.7423,MG
520915,5209150,Gouvelândia,-18.6238,-50.0805,GO
210450,2104503,Governador Archer,-5.02078,-44.2754,MA
420600,4206009,Governador Celso Ramos,-27.3172,-48.5576,SC
240430,2404309,Governador Dix-Sept Rosado,-5.44887,-37.5183,RN
210455,2104552,Governador Edison Lobão,-5.74973,-47.3646,MA
210460,2104602,Governador Eugênio Barros,-5.31897,-44.2469,MA
110100,1101005,Governador Jorge Teixeira,-10.61,-62.7371,RO
320225,3202256,Governador Lindenberg,-19.1864,-40.4473,ES
210462,2104628,Governador Luiz Rocha,-5.47835,-44.0774,MA
291160,2911600,Governador Mangabeira,-12.5994,-39.0412,BA
210465,2104651,Governador Newton Bello,-3.43245,-45.6619,MA
210467,2104677,Governador Nunes Freire,-2.12899,-45.8777,MA
312770,3127701,Governador Valadares,-18.8545,-41.9555,MG
230465,2304657,Graça,-4.04422,-40749,CE
210470,2104701,Graça Aranha,-5.40547,-44.3358,MA
280260,2802601,Gracho Cardoso,-10.2252,-37.2006,SE
210480,2104800,Grajaú,-5.81367,-46.1462,MA
430910,4309100,Gramado,-29.3734,-50.8762,RS
430912,4309126,Gramado dos Loureiros,-27.4429,-52.9149,RS
430915,4309159,Gramado Xavier,-29.2706,-52.5795,RS
410870,4108700,Grandes Rios,-24.1466,-51.5094,PR
260630,2606309,Granito,-7.70711,-39615,PE
230470,2304707,Granja,-3.12788,-40.8372,CE
230480,2304806,Granjeiro,-6.88134,-39.2144,CE
312780,3127800,Grão Mogol,-16.5662,-42.8923,MG
420610,4206108,Grão Pará,-28.1809,-49.2252,SC
260640,2606408,Gravatá,-8.21118,-35.5675,PE
430920,4309209,Gravataí,-29.9413,-50.9869,RS
420620,4206207,Gravatal,-28.3208,-49.0427,SC
230490,2304905,Groaíras,-3.91787,-40.3852,CE
240440,2404408,Grossos,-4.98068,-37.1621,RN
312790,3127909,Grupiara,-18.5003,-47.7318,MG
430925,4309258,Guabiju,-28.5421,-51.6948,RS
420630,4206306,Guabiruba,-27.0808,-48.9804,SC
320230,3202306,Guaçuí,-20.7668,-41.6734,ES
220450,2204501,Guadalupe,-6.78285,-43.5594,PI
430930,4309308,Guaíba,-30.1086,-51.3233,RS
351720,3517208,Guaiçara,-21.6195,-49.8013,SP
351730,3517307,Guaimbê,-21.9091,-49.8986,SP
351740,3517406,Guaíra,-20.3196,-48312,SP
410880,4108809,Guaíra,-24085,-54.2573,PR
410890,4108908,Guairaçá,-22932,-52.6906,PR
230495,2304954,Guaiúba,-4.04057,-38.6404,CE
130165,1301654,Guajará,-7.53797,-72.5907,AM
110010,1100106,Guajará-Mirim,-10.7889,-65.3296,RO
291165,2911659,Guajeru,-14.5467,-41.9381,BA
240450,2404507,Guamaré,-5.10619,-36.3222,RN
410895,4108957,Guamiranga,-25.1912,-50.8021,PR
291170,2911709,Guanambi,-14.2231,-42.7799,BA
312800,3128006,Guanhães,-18.7713,-42.9312,MG
312810,3128105,Guapé,-20.7631,-45.9152,MG
351750,3517505,Guapiaçu,-20.7959,-49.2172,SP
351760,3517604,Guapiara,-24.1892,-48.5295,SP
330185,3301850,Guapimirim,-22.5347,-42.9895,RJ
410900,4109005,Guapirama,-23.5203,-50.0407,PR
520920,5209200,Guapó,-16.8297,-49.5345,GO
430940,4309407,Guaporé,-28.8399,-51.8895,RS
410910,4109104,Guaporema,-23.3402,-52.7786,PR
351770,3517703,Guará,-20.4302,-47.8236,SP
250630,2506301,Guarabira,-6.85064,-35485,PB
351780,3517802,Guaraçaí,-21.0292,-51.2119,SP
351790,3517901,Guaraci,-20.4977,-48.9391,SP
410920,4109203,Guaraci,-22.9694,-51.6504,PR
312820,3128204,Guaraciaba,-20.5716,-43.0094,MG
420640,4206405,Guaraciaba,-26.6042,-53.5243,SC
230500,2305001,Guaraciaba do Norte,-4.15814,-40.7476,CE
312825,3128253,Guaraciama,-17.0142,-43.6675,MG
170930,1709302,Guaraí,-8.83543,-48.5114,TO
520929,5209291,Guaraíta,-15.6121,-50.0265,GO
230510,2305100,Guaramiranga,-4.26248,-38932,CE
420650,4206504,Guaramirim,-26.4688,-49.0026,SC
312830,3128303,Guaranésia,-21.3009,-46.7964,MG
312840,3128402,Guarani,-21.3563,-43.0328,MG
351800,3518008,Guarani d'Oeste,-20.0746,-50.3411,SP
430950,4309506,Guarani das Missões,-28.1491,-54.5629,RS
520940,5209408,Guarani de Goiás,-13.9421,-46.4868,GO
410930,4109302,Guaraniaçu,-25.0968,-52.8755,PR
351810,3518107,Guarantã,-21.8942,-49.5914,SP
510410,5104104,Guarantã do Norte,-9.96218,-54.9121,MT
320240,3202405,Guarapari,-20.6772,-40.5093,ES
410940,4109401,Guarapuava,-25.3902,-51.4623,PR
410950,4109500,Guaraqueçaba,-25.3071,-48.3204,PR
312850,3128501,Guarará,-21.7304,-43.0334,MG
351820,3518206,Guararapes,-21.2544,-50.6453,SP
351830,3518305,Guararema,-23.4112,-46.0369,SP
291180,2911808,Guaratinga,-16.5833,-39.7847,BA
351840,3518404,Guaratinguetá,-22.8075,-45.1938,SP
410960,4109609,Guaratuba,-25.8817,-48.5752,PR
312860,3128600,Guarda-Mor,-17.7673,-47.0998,MG
351850,3518503,Guareí,-23.3714,-48.1837,SP
351860,3518602,Guariba,-21.3594,-48.2316,SP
220455,2204550,Guaribas,-9.38647,-43.6943,PI
520945,5209457,Guarinos,-14.7292,-49.7006,GO
351870,3518701,Guarujá,-23.9888,-46258,SP
420660,4206603,Guarujá do Sul,-26.3858,-53.5296,SC
351880,3518800,Guarulhos,-23.4538,-46.5333,SP
420665,4206652,Guatambú,-27.1341,-52.7887,SC
351885,3518859,Guatapará,-21.4944,-48.0356,SP
312870,3128709,Guaxupé,-21305,-46.7081,MG
500410,5004106,Guia Lopes da Laguna,-21.4583,-56.1117,MS
312880,3128808,Guidoval,-21155,-42.7887,MG
210490,2104909,Guimarães,-2.12755,-44602,MA
312890,3128907,Guimarânia,-18.8425,-46.7901,MG
510420,5104203,Guiratinga,-16346,-53.7575,MT
312900,3129004,Guiricema,-21.0098,-42.7207,MG
312910,3129103,Gurinhatã,-19.2143,-49.7876,MG
250640,2506400,Gurinhém,-7.1233,-35.4222,PB
250650,2506509,Gurjão,-7.24833,-36.4923,PB
150310,1503101,Gurupá,-1.41412,-51.6338,PA
170950,1709500,Gurupi,-11.7279,-49068,TO
351890,3518909,Guzolândia,-20.6467,-50.6645,SP
430955,4309555,Harmonia,-29.5456,-51.4185,RS
520960,5209606,Heitoraí,-15719,-49.8268,GO
312920,3129202,Heliodora,-22.0644,-45.5453,MG
291185,2911857,Heliópolis,-10.6825,-38.2907,BA
351900,3519006,Herculândia,-22.0038,-50.3907,SP
430710,4307104,Herval,-32024,-53.3944,RS
420670,4206702,Herval d'Oeste,-27.1903,-51.4917,SC
430957,4309571,Herveiras,-29.4552,-52.6553,RS
520970,5209705,Hidrolândia,-16.9626,-49.2265,GO
230520,2305209,Hidrolândia,-4.40958,-40.4056,CE
520980,5209804,Hidrolina,-14.7261,-49.4634,GO
351905,3519055,Holambra,-22.6405,-47.0487,SP
410965,4109658,Honório Serpa,-26139,-52.3848,PR
230523,2305233,Horizonte,-4.1209,-38.4707,CE
430960,4309605,Horizontina,-27.6282,-54.3053,RS
351907,3519071,Hortolândia,-22.8529,-47.2143,SP
220460,2204600,Hugo Napoleão,-5.9886,-42.5598,PI
430965,4309654,Hulha Negra,-31.4067,-53.8667,RS
430970,4309704,Humaitá,-27.5691,-53.9695,RS
130170,1301704,Humaitá,-7.51171,-63.0327,AM
210500,2105005,Humberto de Campos,-2.59828,-43.4649,MA
351910,3519105,Iacanga,-21.8896,-49031,SP
520990,5209903,Iaciara,-14.1011,-46.6335,GO
351920,3519204,Iacri,-21.8572,-50.6932,SP
291190,2911907,Iaçu,-12.7666,-40.2056,BA
312930,3129301,Iapu,-19.4387,-42.2147,MG
351925,3519253,Iaras,-22.8682,-49.1634,SP
260650,2606507,Iati,-9.04559,-36.8498,PE
410970,4109708,Ibaiti,-23.8478,-50.1932,PR
430975,4309753,Ibarama,-29.4203,-53.1295,RS
230526,2305266,Ibaretama,-4.80376,-38.7501,CE
351930,3519303,Ibaté,-21.9584,-47.9882,SP
270300,2703007,Ibateguara,-8.97823,-35.9373,AL
320245,3202454,Ibatiba,-20.2347,-41.5087,ES
410975,4109757,Ibema,-25.1193,-53.0072,PR
